city,city_ascii,state_id,state_name,county_fips,county_name,lat,lng,population,density,source,military,incorporated,timezone,ranking,zips,id
New York,New York,NY,New York,36081,Queens,40.6943,-73.9249,18908608,11080.3,shape,FALSE,TRUE,America/New_York,1,11229 11228 11226 11225 11224 11222 11221 11220 11385 10169 10168 10167 10165 10162 10282 10280 10040 10044 11109 11102 11103 11106 11104 11697 11694 11692 11693 11691 10271 10279 10278 10075 11249 10452 11451 10475 10474 10471 10470 10473 10472 11223 10103 11368 11369 11366 11367 11364 11365 11362 11363 11360 11361 10028 10029 10026 10027 10024 10025 10022 10023 10020 10021 11212 11213 11210 11211 11216 11217 11214 11215 11218 11219 10152 10153 10154 10310 10311 10312 10314 11439 11432 11433 11430 11436 11434 11435 10453 10451 10457 10456 10455 10454 10459 10458 10128 10004 10005 10006 10007 10001 10002 10003 10009 11238 11239 11230 11231 11232 11233 11234 11235 11236 11237 11379 11378 11375 11374 11377 11371 11370 11373 11372 10170 10171 10172 10173 10174 10177 11356 10039 10038 10035 10034 10037 10036 10031 10030 10033 10032 11201 11209 11203 11205 11204 11207 11206 11208 11411 11412 11413 11414 11415 11416 11417 11418 11419 11101 11105 11001 11005 11004 10065 10069 10199 10309 10308 10307 10306 10305 10304 10303 10302 10301 11429 11428 11421 11420 11423 11422 11424 11427 11426 10466 10467 10464 10465 10462 10463 10460 10461 10468 10469 10119 10115 10112 10110 10111 11359 11358 11357 11355 11354 10019 10018 10013 10012 10011 10010 10017 10016 10014 10008 10041 10043 10055 10060 10081 10087 10090 10101 10102 10104 10105 10106 10107 10108 10109 10113 10114 10116 10117 10118 10120 10121 10122 10123 10124 10125 10126 10129 10130 10131 10132 10133 10138 10150 10151 10155 10156 10157 10158 10159 10160 10163 10164 10166 10175 10176 10178 10179 10185 10203 10211 10212 10213 10242 10249 10256 10258 10259 10260 10261 10265 10268 10269 10270 10272 10273 10274 10275 10276 10277 10281 10285 10286 10313 11120 11202 11241 11242 11243 11245 11247 11251 11252 11256 11351 11352 11380 11386 11405 11425 11431 11437 11499 11690 11695,1840034016
Los Angeles,Los Angeles,CA,California,6037,Los Angeles,34.1141,-118.4068,11922389,3184.7,shape,FALSE,TRUE,America/Los_Angeles,1,91367 90291 90293 90292 91316 91311 90035 90034 90037 90031 90039 90008 90004 90005 90006 90007 90001 90002 90003 91504 91040 90710 90089 91307 91344 91345 91340 91342 91343 90036 90247 91411 91436 91371 91608 91605 91604 91607 91606 91601 91602 90402 90068 90069 90062 90063 90061 90066 90067 90064 90065 90248 91326 91324 91325 90013 90012 90011 90010 90017 90016 90015 90014 91364 90028 90095 90094 91042 91352 91356 91406 91402 90041 90042 90043 90044 90045 90046 90047 90048 90049 90019 90018 91423 90210 91303 91304 91306 90079 90071 90077 90059 91331 91330 91335 90026 90027 90024 90025 90023 90020 90021 90029 90272 90732 90731 90230 91405 91403 91401 90033 90032 90038 90057 90052 90058 90744 90501 90502 90009 90030 90050 90051 90053 90054 90055 90060 90070 90072 90074 90075 90076 90078 90080 90081 90082 90083 90084 90086 90087 90088 90093 90099 90134 90140 90189 90213 90294 90295 90733 90734 90748 91041 91043 91305 91308 91309 91313 91327 91328 91333 91334 91337 91346 91353 91357 91365 91392 91393 91394 91395 91396 91404 91407 91408 91409 91410 91412 91413 91416 91426 91470 91482 91495 91496 91499 91603 91609 91610 91614 91615 91616 91617 91618,1840020491
Chicago,Chicago,IL,Illinois,17031,Cook,41.8375,-87.6866,8497759,4614.5,shape,FALSE,TRUE,America/Chicago,1,60018 60649 60641 60640 60643 60642 60645 60644 60647 60646 60616 60617 60614 60615 60612 60613 60610 60611 60618 60619 60631 60827 60661 60660 60638 60639 60634 60636 60637 60630 60632 60633 60605 60604 60607 60606 60601 60603 60602 60609 60608 60106 60659 60652 60653 60656 60657 60654 60655 60651 60623 60622 60621 60620 60626 60625 60624 60629 60628 60707 60499 60664 60666 60668 60669 60670 60673 60674 60675 60677 60678 60680 60681 60684 60685 60686 60687 60688 60689 60690 60694 60695 60696 60699,1840000494
Miami,Miami,FL,Florida,12086,Miami-Dade,25.784,-80.2101,6080145,4758.9,shape,FALSE,TRUE,America/New_York,1,33128 33129 33125 33126 33127 33149 33144 33145 33142 33139 33138 33137 33136 33135 33134 33133 33132 33131 33130 33150 33101 33109 33111 33151 33192 33195 33222 33231 33233 33238 33255 33299,1840015149
Houston,Houston,TX,Texas,48201,Harris,29.786,-95.3885,5970127,1384,shape,FALSE,TRUE,America/Chicago,1,77069 77068 77061 77060 77063 77062 77065 77064 77067 77066 77346 77571 77036 77037 77034 77035 77032 77033 77030 77031 77038 77449 77489 77044 77043 77042 77204 77598 77018 77019 77015 77016 77017 77010 77011 77012 77013 77094 77093 77092 77345 77547 77025 77024 77027 77026 77021 77020 77023 77022 77029 77028 77096 77090 77091 77098 77099 77078 77079 77072 77073 77070 77071 77076 77077 77074 77075 77407 77047 77046 77045 77041 77040 77048 77336 77339 77338 77003 77002 77007 77006 77005 77004 77009 77008 77450 77082 77084 77089 77088 77083 77081 77080 77087 77086 77085 77053 77054 77055 77056 77057 77058 77059 77396 77051 77506 77504 77001 77052 77201 77202 77203 77205 77206 77207 77208 77209 77210 77212 77213 77215 77216 77217 77218 77219 77220 77221 77222 77223 77225 77226 77227 77228 77229 77230 77231 77233 77234 77235 77236 77237 77241 77242 77243 77244 77245 77248 77249 77251 77252 77253 77254 77255 77256 77257 77259 77261 77262 77263 77266 77269 77270 77271 77272 77273 77274 77275 77282 77284 77287 77288 77289 77291 77292 77293 77297 77299 77315 77325 77411,1840020925
Dallas,Dallas,TX,Texas,48113,Dallas,32.7935,-96.7667,5830932,1478.7,shape,FALSE,TRUE,America/Chicago,1,75098 75287 75230 75231 75236 75237 75235 75254 75251 75252 75253 75043 75032 75227 75238 75232 75233 75234 75089 75088 75087 75247 75244 75249 75248 75051 75166 75210 75211 75212 75214 75215 75216 75217 75218 75219 75390 75182 75229 75228 75220 75223 75225 75224 75226 75243 75241 75240 75246 75270 75207 75206 75204 75203 75202 75201 75209 75208 75019 75221 75222 75242 75250 75260 75262 75263 75264 75266 75267 75277 75283 75284 75285 75301 75303 75312 75313 75315 75320 75336 75339 75342 75354 75355 75356 75357 75358 75359 75360 75367 75370 75371 75372 75373 75374 75376 75378 75379 75380 75382 75389 75392 75393 75394 75395 75397 75398,1840019440
Philadelphia,Philadelphia,PA,Pennsylvania,42101,Philadelphia,40.0077,-75.1339,5683533,4578.4,shape,FALSE,TRUE,America/New_York,1,19154 19151 19150 19153 19152 19102 19103 19106 19107 19104 19108 19109 19128 19129 19120 19121 19122 19123 19124 19125 19126 19127 19112 19111 19115 19114 19116 19119 19118 19148 19149 19146 19147 19144 19145 19142 19143 19140 19141 19139 19138 19137 19136 19135 19134 19133 19132 19131 19130 19019 19092 19093 19099 19101 19105 19110 19155 19160 19161 19162 19170 19171 19172 19173 19175 19176 19177 19178 19179 19181 19182 19183 19184 19185 19187 19188 19190 19191 19192 19193 19194 19195 19196 19197 19244 19255,1840000673
Atlanta,Atlanta,GA,Georgia,13121,Fulton,33.7628,-84.422,5180179,1412.3,shape,FALSE,TRUE,America/New_York,1,30334 30331 30332 30309 30308 30354 30327 30322 30326 30324 30319 30342 30305 30307 30306 30316 30317 30314 30315 30312 30313 30310 30311 30303 30363 30318 30301 30302 30304 30321 30325 30333 30343 30348 30353 30355 30357 30361 30368 30369 30370 30371 30375 30377 30392 30394 30398 31106 31107 31126 31139 31141 31193 31195 31196,1840013660
Washington,Washington,DC,District of Columbia,11001,District of Columbia,38.9047,-77.0163,5116378,4235.7,shape,FALSE,TRUE,America/New_York,1,20250 20010 20011 20012 20015 20520 20418 20415 20020 20024 20510 20515 20427 20422 20530 20542 20540 20240 20245 20204 20005 20004 20003 20002 20001 20009 20008 20317 20319 20390 20059 20057 20052 20388 20017 20018 20565 20566 20560 20591 20220 20064 20551 20230 20373 20260 20007 20006 20032 20036 20037 20431 20045 20408 20535 20016 20019 20013 20022 20026 20027 20029 20030 20033 20035 20038 20039 20040 20042 20043 20044 20047 20049 20050 20053 20055 20056 20058 20060 20061 20062 20063 20065 20066 20067 20068 20069 20070 20071 20073 20074 20075 20076 20077 20078 20080 20081 20082 20090 20091 20201 20202 20203 20206 20207 20208 20210 20211 20212 20213 20214 20215 20216 20217 20218 20219 20221 20222 20223 20224 20226 20227 20228 20229 20232 20233 20235 20237 20238 20239 20241 20242 20244 20251 20252 20254 20261 20262 20265 20266 20268 20270 20277 20289 20299 20301 20303 20306 20310 20314 20318 20330 20340 20350 20355 20370 20372 20374 20375 20376 20380 20389 20391 20392 20393 20394 20395 20398 20401 20402 20403 20404 20405 20406 20407 20410 20411 20412 20413 20414 20416 20417 20419 20420 20421 20423 20424 20425 20426 20428 20429 20433 20434 20435 20436 20437 20439 20440 20441 20442 20444 20447 20451 20453 20456 20460 20463 20468 20469 20470 20472 20500 20501 20502 20503 20504 20505 20506 20507 20508 20509 20511 20521 20522 20523 20524 20525 20526 20527 20528 20529 20531 20533 20534 20536 20537 20538 20539 20541 20543 20544 20546 20547 20548 20549 20552 20553 20554 20555 20557 20559 20570 20571 20572 20573 20575 20576 20577 20578 20579 20580 20581 20585 20586 20590 20593 20594 20597 20599 56901 56902 56904 56908 56915 56920 56933 56935 56944 56945 56950 56965 56967 56972 56998 56999,1840006060
Boston,Boston,MA,Massachusetts,25025,Suffolk,42.3188,-71.0852,4328315,5319,shape,FALSE,TRUE,America/New_York,1,02120 02121 02122 02124 02125 02126 02127 02128 02129 02210 02215 02467 02119 02118 02111 02110 02113 02115 02114 02116 02199 02134 02136 02135 02133 02132 02131 02130 02203 02205 02163 02108 02109 02112 02117 02123 02137 02196 02201 02206 02211 02212 02217 02222 02241 02283 02284 02293 02297 02298,1840000455
Phoenix,Phoenix,AZ,Arizona,4013,Maricopa,33.5722,-112.0892,4064275,1198.9,shape,FALSE,TRUE,America/Phoenix,1,85009 85003 85006 85007 85004 85083 85086 85087 85085 85331 85033 85306 85308 85020 85021 85022 85023 85024 85026 85027 85028 85029 85353 85019 85018 85013 85012 85015 85014 85016 85254 85008 85044 85045 85042 85043 85040 85041 85048 85037 85035 85034 85032 85031 85017 85304 85307 85266 85310 85054 85051 85050 85053 85001 85002 85005 85010 85011 85030 85036 85038 85046 85060 85061 85062 85063 85064 85065 85066 85067 85068 85069 85070 85071 85072 85073 85074 85075 85076 85078 85079 85080 85082,1840020568
Detroit,Detroit,MI,Michigan,26163,Wayne,42.3834,-83.1024,3725908,1772.2,shape,FALSE,TRUE,America/Detroit,1,48209 48208 48202 48201 48207 48206 48205 48204 48227 48238 48239 48234 48235 48233 48203 48243 48228 48226 48214 48215 48216 48217 48210 48211 48212 48213 48219 48224 48221 48223 48231 48232 48244 48255 48260 48264 48266 48267 48268 48269 48272 48275 48277 48278 48279 48288,1840003971
Seattle,Seattle,WA,Washington,53033,King,47.6211,-122.3244,3561397,3376.6,shape,FALSE,TRUE,America/Los_Angeles,1,98109 98108 98105 98104 98107 98106 98101 98103 98102 98154 98122 98121 98126 98125 98178 98174 98177 98144 98146 98195 98199 98118 98119 98116 98117 98115 98112 98164 98134 98136 98133 98111 98113 98114 98124 98127 98129 98139 98141 98145 98161 98165 98170 98175 98181 98185 98191 98194,1840021117
San Francisco,San Francisco,CA,California,6075,San Francisco,37.7558,-122.4449,3364979,7030.7,shape,FALSE,TRUE,America/Los_Angeles,1,94130 94131 94132 94133 94134 94103 94102 94105 94104 94188 94158 94124 94123 94122 94121 94129 94118 94108 94107 94112 94110 94116 94117 94114 94115 94111 94109 94127 94119 94120 94125 94137 94139 94140 94141 94142 94143 94144 94145 94146 94147 94151 94159 94160 94161 94163 94164 94172 94177,1840021543
San Diego,San Diego,CA,California,6073,San Diego,32.8313,-117.1222,3046560,1639.7,shape,FALSE,TRUE,America/Los_Angeles,1,92182 92109 92108 92107 92106 92103 92101 92111 92154 92110 92140 92161 92105 92104 92102 92071 92132 92130 92131 92136 92134 92139 92025 92027 92147 92145 92014 92093 92092 92119 92116 92117 92121 92120 92123 92122 92124 92127 92126 92129 92128 92037 92173 92113 92114 92115 92038 92039 92072 92112 92137 92138 92142 92143 92149 92150 92152 92153 92158 92159 92160 92163 92165 92166 92167 92168 92169 92170 92171 92172 92174 92175 92176 92177 92186 92187 92191 92192 92193 92195 92196 92197 92198 92199,1840021990
Minneapolis,Minneapolis,MN,Minnesota,27053,Hennepin,44.9635,-93.2678,2892569,3052.2,shape,FALSE,TRUE,America/Chicago,1,55404 55409 55408 55407 55406 55405 55403 55402 55401 55454 55455 55430 55418 55419 55410 55411 55412 55413 55414 55415 55416 55417 55440 55458 55459 55467 55470 55472 55474 55478 55479 55480 55483 55484 55485 55486 55487 55488,1840007830
Tampa,Tampa,FL,Florida,12057,Hillsborough,27.9945,-82.4447,2861173,1320.9,shape,FALSE,TRUE,America/New_York,1,33629 33621 33620 33619 33616 33613 33617 33614 33610 33611 33612 33637 33647 33609 33605 33604 33607 33606 33603 33602 33608 33622 33623 33630 33631 33633 33646 33650 33655 33664 33672 33673 33674 33677 33679 33681 33684 33686 33689,1840015982
Brooklyn,Brooklyn,NY,New York,36047,Kings,40.6501,-73.9496,2736074,15200.5,point,FALSE,TRUE,America/New_York,1,11229 11226 11225 11224 11223 11221 11220 11249 11228 11222 11212 11213 11210 11211 11216 11217 11214 11215 11218 11219 11238 11239 11230 11231 11232 11233 11234 11235 11236 11237 11208 11201 11203 11205 11204 11207 11206 11209 11202 11241 11242 11243 11245 11247 11251 11252 11256,1840034030
Denver,Denver,CO,Colorado,8031,Denver,39.762,-104.8758,2687458,1792.9,shape,FALSE,TRUE,America/Denver,1,80264 80266 80230 80231 80236 80237 80235 80238 80239 80123 80249 80247 80246 80290 80293 80294 80218 80210 80212 80216 80221 80220 80223 80222 80224 80227 80219 80211 80209 80207 80206 80205 80204 80202 80203 80208 80217 80243 80248 80250 80256 80257 80259 80261 80265 80271 80273 80274 80281 80291 80299,1840018789
Queens,Queens,NY,New York,36081,Queens,40.7498,-73.7976,2405464,8503.7,point,FALSE,TRUE,America/New_York,1,11385 11109 11102 11103 11106 11104 11379 11378 11377 11697 11694 11692 11693 11691 11451 11368 11369 11366 11367 11364 11365 11362 11363 11360 11361 11429 11439 11432 11433 11430 11436 11434 11435 11375 11374 11371 11370 11373 11372 11411 11412 11413 11414 11415 11416 11417 11418 11419 11101 11105 11001 11005 11004 11428 11421 11420 11423 11422 11424 11427 11426 11359 11358 11357 11356 11355 11354 11120 11351 11352 11380 11386 11405 11425 11431 11437 11499 11690 11695,1840034002
Riverside,Riverside,CA,California,6065,Riverside,33.9381,-117.3949,2332836,1503.9,shape,FALSE,TRUE,America/Los_Angeles,1,92508 92503 92501 92506 92505 92504 92507 92521 92502 92513 92514 92516 92517 92522,1840020551
Las Vegas,Las Vegas,NV,Nevada,32003,Clark,36.2333,-115.2654,2248047,1755.1,shape,FALSE,TRUE,America/Los_Angeles,1,89146 89149 89107 89106 89104 89102 89101 89108 89138 89130 89131 89134 89143 89145 89144 89110 89117 89129 89128 89124 88901 88905 89105 89114 89116 89125 89126 89127 89133 89137 89140 89151 89152 89153 89155 89163 89185 89195,1840020364
Baltimore,Baltimore,MD,Maryland,24510,Baltimore,39.3051,-76.6144,2196524,2788.2,shape,FALSE,TRUE,America/New_York,1,21218 21211 21210 21213 21212 21215 21214 21217 21216 21233 21231 21230 21239 21251 21209 21202 21206 21207 21205 21287 21223 21226 21201 21224 21225 21229 21203 21263 21264 21270 21273 21275 21278 21279 21281 21290 21297 21298,1840001592
St. Louis,St. Louis,MO,Missouri,29510,St. Louis,38.6359,-90.2451,2130881,1864.3,shape,FALSE,TRUE,America/Chicago,1,63110 63111 63112 63113 63115 63116 63118 63120 63107 63106 63104 63103 63102 63101 63109 63108 63155 63139 63137 63143 63147 63150 63156 63157 63158 63160 63163 63164 63166 63169 63177 63178 63179 63180 63188 63197,1840001651
Portland,Portland,OR,Oregon,41051,Multnomah,45.5371,-122.65,2095808,1868.8,shape,FALSE,TRUE,America/Los_Angeles,1,97227 97221 97220 97229 97203 97202 97201 97206 97205 97204 97209 97208 97258 97266 97219 97213 97236 97232 97233 97230 97239 97218 97214 97215 97216 97217 97210 97211 97212 97207 97228 97238 97240 97242 97250 97251 97252 97253 97254 97256 97280 97282 97283 97286 97290 97291 97292 97293 97294,1840019941
San Antonio,San Antonio,TX,Texas,48029,Bexar,29.4632,-98.5238,2058444,1118.8,shape,FALSE,TRUE,America/Chicago,1,78112 78239 78259 78258 78252 78251 78250 78257 78256 78255 78254 78208 78201 78202 78203 78204 78205 78207 78245 78242 78248 78231 78230 78233 78232 78235 78234 78237 78238 78209 78109 78266 78264 78260 78219 78218 78217 78216 78215 78214 78213 78212 78211 78210 78244 78247 78240 78249 78073 78023 78222 78223 78220 78221 78226 78227 78224 78225 78228 78229 78206 78241 78246 78265 78268 78269 78270 78278 78279 78280 78283 78284 78285 78288 78289 78291 78292 78293 78294 78295 78296 78297 78298 78299,1840022220
Sacramento,Sacramento,CA,California,6067,Sacramento,38.5677,-121.4685,1957738,2049.4,shape,FALSE,TRUE,America/Los_Angeles,1,95821 95820 95823 95838 95832 95833 95831 95834 95835 95811 95814 95815 95818 95819 95828 95822 95825 95824 95826 95816 95817 94203 94204 94205 94207 94208 94209 94211 94229 94230 94232 94234 94235 94236 94237 94239 94240 94244 94245 94247 94248 94249 94250 94252 94254 94256 94257 94258 94259 94261 94262 94263 94267 94268 94269 94271 94273 94274 94277 94278 94279 94280 94282 94283 94284 94285 94287 94288 94289 94290 94291 94293 94294 94295 94296 94297 94298 94299 95812 95813 95840 95851 95852 95853 95867 95894,1840021491
Austin,Austin,TX,Texas,48453,Travis,30.3005,-97.7522,1905945,1154.1,shape,FALSE,TRUE,America/Chicago,1,78749 78748 78741 78742 78745 78744 78747 78746 78717 78712 78719 78617 78739 78735 78736 78730 78731 78732 78733 78705 78704 78701 78703 78702 78758 78759 78752 78753 78750 78751 78756 78757 78754 78652 78723 78722 78721 78727 78726 78725 78724 78729 78728 73301 73344 78651 78708 78709 78710 78711 78713 78714 78715 78718 78720 78755 78760 78761 78762 78763 78765 78766 78767 78768 78772 78773 78774 78778 78779 78783 78799,1840019590
Orlando,Orlando,FL,Florida,12095,Orange,28.4773,-81.337,1882705,1070.2,shape,FALSE,TRUE,America/New_York,1,32829 32827 32824 32822 32804 32805 32806 32807 32801 32803 32808 32839 32835 32832 32819 32811 32812 32814 32802 32853 32854 32856 32861 32862 32872 32877 32885 32886 32891 32897,1840015099
San Juan,San Juan,PR,Puerto Rico,72127,San Juan,18.3985,-66.061,1814587,3128.8,shape,FALSE,FALSE,America/Puerto_Rico,1,00918 00913 00912 00911 00917 00915 00926 00927 00924 00925 00923 00920 00921 00906 00907 00901 00909 00969 00908 00910 00919 00922 00928 00929 00930 00931 00935 00936 00937 00939 00940 00955 00975,1630035577
San Jose,San Jose,CA,California,6085,Santa Clara,37.3012,-121.848,1771413,2172.6,shape,FALSE,TRUE,America/Los_Angeles,1,95119 95118 95128 95124 95125 95122 95008 95002 95117 95116 95111 95110 95113 95112 95126 95127 95120 95123 95148 95133 95132 95131 95130 95136 95134 95139 95138 95037 95013 95129 95121 95101 95103 95106 95109 95115 95141 95150 95151 95153 95154 95155 95156 95157 95158 95159 95160 95161 95164 95172 95173 95190 95191 95192 95193 95194 95196,1840021570
Pittsburgh,Pittsburgh,PA,Pennsylvania,42003,Allegheny,40.4397,-79.9763,1749091,2118.5,shape,FALSE,TRUE,America/New_York,1,15282 15216 15217 15214 15212 15213 15210 15211 15218 15219 15290 15232 15260 15233 15205 15204 15207 15206 15201 15203 15208 15234 15222 15221 15220 15226 15224 15120 15230 15240 15250 15251 15252 15253 15254 15255 15257 15258 15259 15261 15262 15264 15265 15267 15270 15272 15274 15279 15281 15286 15289 15295,1840001254
Indianapolis,Indianapolis,IN,Indiana,18097,Marion,39.7771,-86.1458,1729849,941.8,shape,FALSE,TRUE,America/Indiana/Indianapolis,1,46234 46237 46218 46219 46217 46214 46260 46268 46226 46225 46183 46231 46235 46236 46239 46254 46250 46208 46201 46203 46202 46205 46204 46206 46256 46259 46227 46224 46222 46221 46220 46229 46228 46113 46278 46241 46240 46207 46209 46230 46242 46244 46247 46251 46253 46255 46262 46277 46282 46283 46285 46288 46298,1840030084
Manhattan,Manhattan,NY,New York,36061,New York,40.7834,-73.9662,1694263,28653.9,point,FALSE,TRUE,America/New_York,1,10169 10168 10167 10165 10162 10282 10280 10040 10044 10271 10279 10278 10075 10103 10028 10029 10026 10027 10024 10025 10022 10023 10020 10021 10152 10153 10154 10128 10004 10005 10006 10007 10001 10002 10003 10009 10170 10171 10172 10173 10174 10177 10039 10038 10035 10034 10037 10036 10031 10030 10033 10032 10065 10069 10199 10119 10115 10112 10110 10111 10019 10018 10013 10012 10011 10010 10017 10016 10014 10008 10041 10043 10055 10060 10081 10087 10090 10101 10102 10104 10105 10106 10107 10108 10109 10113 10114 10116 10117 10118 10120 10121 10122 10123 10124 10125 10126 10129 10130 10131 10132 10133 10138 10150 10151 10155 10156 10157 10158 10159 10160 10163 10164 10166 10175 10176 10178 10179 10185 10203 10211 10212 10213 10242 10249 10256 10258 10259 10260 10261 10265 10268 10269 10270 10273 10274 10275 10276 10277 10281 10285 10286,1840034000
Cincinnati,Cincinnati,OH,Ohio,39061,Hamilton,39.1413,-84.506,1692702,1530.6,shape,FALSE,TRUE,America/New_York,1,45267 45219 45213 45212 45211 45217 45216 45214 45224 45225 45223 45220 45237 45229 45226 45227 45230 45204 45205 45206 45207 45202 45203 45208 45209 45239 45238 45233 45232 45201 45221 45250 45254 45262 45263 45264 45268 45269 45270 45271 45273 45274 45275 45296 45298 45299 45999,1840003814
Kansas City,Kansas City,MO,Missouri,29095,Jackson,39.1238,-94.5541,1689556,620.7,shape,FALSE,TRUE,America/Chicago,1,64161 64163 64164 64165 64167 64053 64118 64116 64151 64153 64155 64154 64157 64156 64158 64108 64109 64106 64102 64128 64129 64124 64125 64126 64127 64120 64123 64166 64119 64114 64117 64111 64110 64113 64112 64133 64146 64145 64149 64147 64105 64101 64139 64138 64132 64131 64130 64137 64136 64134 64121 64141 64148 64162 64170 64171 64179 64180 64184 64187 64188 64191 64195 64196 64197 64198 64199 64999,1840008535
Cleveland,Cleveland,OH,Ohio,39035,Cuyahoga,41.4764,-81.6805,1680247,1839.6,shape,FALSE,TRUE,America/New_York,1,44135 44120 44119 44113 44112 44111 44110 44115 44114 44144 44128 44127 44104 44105 44106 44101 44102 44103 44108 44109 44181 44190 44191 44192 44193 44194 44195 44197 44198 44199,1840000596
Columbus,Columbus,OH,Ohio,39049,Franklin,39.9862,-82.9855,1572546,1581,shape,FALSE,TRUE,America/New_York,1,43109 43026 43054 43220 43221 43222 43223 43224 43081 43228 43227 43213 43212 43215 43214 43217 43219 43218 43002 43004 43068 43085 43240 43229 43235 43232 43231 43230 43119 43110 43017 43016 43137 43211 43210 43202 43203 43201 43206 43207 43204 43205 43209 43236 43251 43260 43266 43268 43270 43271 43272 43279 43287 43291,1840003760
Bronx,Bronx,NY,New York,36005,Bronx,40.8501,-73.8662,1472654,13356.3,point,FALSE,TRUE,America/New_York,1,10452 10475 10474 10471 10470 10473 10472 10453 10451 10457 10456 10455 10454 10459 10458 11370 10466 10467 10464 10465 10462 10463 10460 10461 10468 10469,1840033999
Virginia Beach,Virginia Beach,VA,Virginia,51810,Virginia Beach,36.7335,-76.0435,1443020,722.4,shape,FALSE,TRUE,America/New_York,1,23459 23451 23453 23452 23455 23457 23456 23454 23460 23461 23462 23464 23450 23458 23463 23465 23466 23467 23471 23479,1840003871
Charlotte,Charlotte,NC,North Carolina,37119,Mecklenburg,35.2083,-80.8303,1427444,1089.8,shape,FALSE,TRUE,America/New_York,1,28269 28262 28105 28280 28282 28209 28208 28205 28204 28207 28206 28203 28202 28223 28227 28226 28278 28270 28273 28274 28277 28134 28216 28217 28214 28215 28212 28213 28210 28211 28244 28126 28130 28201 28218 28219 28220 28221 28222 28224 28228 28229 28230 28231 28232 28233 28234 28235 28237 28241 28242 28243 28246 28247 28253 28254 28255 28256 28258 28260 28263 28265 28266 28271 28272 28275 28281 28284 28285 28287 28288 28289 28290 28296 28297 28299,1840014557
Milwaukee,Milwaukee,WI,Wisconsin,55079,Milwaukee,43.0642,-87.9675,1290940,2301.6,shape,FALSE,TRUE,America/Chicago,1,53203 53202 53207 53206 53205 53204 53209 53208 53233 53218 53219 53214 53215 53216 53210 53211 53212 53213 53295 53225 53224 53221 53220 53223 53222 53228 53201 53237 53259 53263 53274 53278 53288 53290 53293,1840003046
Providence,Providence,RI,Rhode Island,44007,Providence,41.823,-71.4187,1290271,3979.7,shape,FALSE,TRUE,America/New_York,1,02903 02906 02907 02908 02904 02905 02909 02912 02918 02901 02902 02940,1840003289
Jacksonville,Jacksonville,FL,Florida,12031,Duval,30.3322,-81.6749,1288298,491,shape,FALSE,TRUE,America/New_York,1,32224 32225 32226 32227 32220 32221 32222 32223 32228 32219 32218 32214 32217 32216 32211 32210 32212 32246 32244 32233 32234 32202 32250 32254 32257 32256 32208 32209 32206 32207 32204 32205 32203 32258 32277 32099 32201 32229 32231 32232 32235 32236 32238 32239 32241 32245 32247 32255,1840015031
Nashville,Nashville,TN,Tennessee,47037,Davidson,36.1715,-86.7842,1177657,555.4,shape,FALSE,TRUE,America/Chicago,1,37027 37138 37076 37072 37203 37206 37201 37080 37218 37219 37216 37217 37214 37215 37212 37213 37210 37211 37189 37232 37238 37209 37208 37205 37204 37207 37115 37013 37228 37221 37220 37143 37011 37116 37202 37222 37224 37227 37229 37230 37234 37235 37236 37240 37241 37242 37243 37244 37246 37250,1840036155
Salt Lake City,Salt Lake City,UT,Utah,49035,Salt Lake,40.7776,-111.9311,1173879,700.8,shape,FALSE,TRUE,America/Denver,1,84116 84115 84114 84113 84112 84111 84128 84150 84180 84108 84101 84102 84103 84104 84105 84106 84138 84110 84122 84132 84133 84134 84139 84143 84145 84147 84148 84151 84152 84158 84199,1840021383
Raleigh,Raleigh,NC,North Carolina,37183,Wake,35.8324,-78.6429,1163152,1210,shape,FALSE,TRUE,America/New_York,1,27617 27616 27615 27614 27613 27612 27610 27609 27601 27603 27604 27605 27606 27608 27607 27697 27695 27602 27619 27620 27622 27624 27626 27627 27628 27634 27636 27640 27650 27656 27658 27661 27668 27675 27676 27690 27698,1840014497
Richmond,Richmond,VA,Virginia,51760,Richmond,37.5295,-77.4756,1073223,1463.7,shape,FALSE,TRUE,America/New_York,1,23222 23223 23298 23284 23220 23221 23226 23227 23224 23225 23230 23235 23234 23219 23173 23218 23232 23249 23260 23261 23269 23274 23276 23278 23282 23285 23286 23289 23290 23291 23292 23295,1840001698
Memphis,Memphis,TN,Tennessee,47157,Shelby,35.1087,-89.9663,1037998,824.8,shape,FALSE,TRUE,America/Chicago,1,38120 38127 38126 38107 38106 38105 38104 38103 38109 38108 38152 38132 38141 38112 38114 38111 38113 38115 38116 38117 38118 38119 38018 38016 38133 38131 38134 38128 38122 38125 37501 37544 38088 38101 38124 38130 38136 38137 38145 38148 38150 38151 38157 38159 38161 38163 38166 38168 38173 38174 38175 38177 38181 38182 38184 38186 38187 38188 38190 38193 38194 38197,1840015457
Oklahoma City,Oklahoma City,OK,Oklahoma,40109,Oklahoma,35.4676,-97.5136,998806,433.6,shape,FALSE,TRUE,America/Chicago,2,73099 73119 73118 73114 73117 73116 73111 73110 73112 73020 73012 73013 73142 73141 73145 73149 73169 73078 73108 73109 73106 73107 74857 73139 73132 73131 73135 73134 73008 73097 73084 73105 73162 73103 73054 73151 73150 73159 73064 73104 73102 73179 73173 73170 73049 73160 73165 73127 73120 73121 73122 73128 73129 73101 73113 73124 73125 73126 73136 73137 73143 73144 73146 73147 73148 73152 73154 73155 73157 73163 73164 73167 73172 73178 73184 73189 73190 73194 73195,1840020428
Hartford,Hartford,CT,Connecticut,9110,Capitol,41.7661,-72.6834,974684,2689.4,shape,FALSE,TRUE,America/New_York,2,06106 06105 06103 06120 06112 06114 06101 06102 06104 06115 06123 06126 06127 06132 06133 06134 06140 06141 06142 06143 06144 06145 06146 06147 06150 06151 06152 06154 06160 06167 06176 06183,1840004773
Louisville,Louisville,KY,Kentucky,21111,Jefferson,38.1663,-85.6485,963812,923.1,shape,FALSE,TRUE,America/New_York,2,40245 40242 40241 40218 40219 40214 40216 40211 40213 40059 40291 40299 40220 40223 40222 40229 40228 40023 40272 40207 40209 40258 40118 40018 40027 40225 40261 40268 40269 40281,1840030815
Buffalo,Buffalo,NY,New York,36029,Erie,42.9018,-78.8487,944589,2645.7,shape,FALSE,TRUE,America/New_York,2,14208 14209 14202 14203 14201 14206 14207 14204 14220 14222 14211 14210 14213 14212 14215 14214 14216 14205 14233 14240 14263 14264 14267 14269 14270 14272 14273 14276 14280,1840000386
New Orleans,New Orleans,LA,Louisiana,22071,Orleans,30.0687,-89.9288,932759,866.5,shape,FALSE,TRUE,America/Chicago,2,70139 70130 70131 70148 70114 70115 70116 70117 70112 70113 70118 70119 70129 70128 70125 70124 70127 70126 70122 70163 70142 70145 70146 70150 70151 70152 70153 70154 70156 70157 70158 70159 70160 70161 70162 70164 70165 70166 70167 70170 70172 70174 70175 70176 70177 70178 70179 70181 70182 70184 70185 70186 70187 70189 70190 70195,1840001839
Fort Worth,Fort Worth,TX,Texas,48439,Tarrant,32.7817,-97.3474,924663,1021.2,shape,FALSE,TRUE,America/Chicago,2,76164 76040 76134 76135 76137 76131 76132 76133 76109 76108 76105 76104 76107 76106 76103 76102 76155 76053 76052 76123 76120 76244 76008 76179 76177 76036 76140 76262 76006 76118 76119 76116 76117 76114 76115 76112 76110 76111 76129 76127 76126 76101 76113 76121 76122 76124 76130 76147 76150 76161 76162 76163 76166 76190 76191 76193 76195 76196 76197 76198 76199,1840020696
Bridgeport,Bridgeport,CT,Connecticut,9120,Greater Bridgeport,41.1918,-73.1954,908251,3568.4,shape,FALSE,TRUE,America/New_York,2,06605 06604 06607 06606 06608 06610 06601 06602,1840004836
Vancouver,Vancouver,BC,British Columbia,1,Vancouver,49.26083,-123.11389,662248,5749.9,shape,FALSE,TRUE,America/Los_Angeles,2,604 778 236 672,1840004836
Toronto,Toronto,ON,Ontario,1,Toronto,43.74167,-79.37333,2794356,4427.8,shape,FALSE,TRUE,America/New_York,2,06605 06604 06607 06606 06608 06610 06601 06602,1840004836
Tucson,Tucson,AZ,Arizona,4019,Pima,32.1541,-110.8787,878320,863.9,shape,FALSE,TRUE,America/Phoenix,2,85705 85707 85706 85709 85710 85756 85723 85726 85724 85701 85708 85719 85748 85745 85747 85716 85714 85715 85712 85713 85711 85734 85730 85721 85702 85703 85717 85720 85722 85725 85731 85732 85738 85751 85754 85775,1840022101
El Paso,El Paso,TX,Texas,48141,El Paso,31.8476,-106.43,865270,1011.4,shape,FALSE,TRUE,America/Denver,2,79901 79902 79903 79904 79905 79906 79907 79930 79932 79935 79934 79936 79915 79912 79911 79835 79922 79920 79927 79924 79925 79910 79913 79914 79917 79923 79926 79931 79937 79940 79941 79942 79943 79944 79945 79946 79947 79948 79949 79950 79951 79952 79953 79954 79955 79958 79960 79961 79968 79976 79978 79980 79995 79996 79997 79998 79999 88540 88541 88542 88543 88544 88545 88546 88547 88548 88549 88550 88553 88554 88555 88556 88557 88558 88559 88560 88561 88562 88563 88565 88566 88567 88568 88569 88570 88571 88572 88573 88574 88575 88576 88577 88578 88579 88580 88581 88582 88583 88584 88585 88586 88588 88590 88595,1840023252
Omaha,Omaha,NE,Nebraska,31055,Douglas,41.2627,-96.0529,821345,1323.9,shape,FALSE,TRUE,America/Chicago,2,68112 68114 68117 68116 68118 68182 68183 68105 68108 68178 68110 68122 68127 68124 68111 68022 68137 68135 68132 68144 68134 68131 68130 68102 68106 68107 68104 68164 68152 68154 68101 68103 68109 68119 68139 68145 68172 68175 68176 68179 68180 68197 68198,1840009315
McAllen,McAllen,TX,Texas,48215,Hidalgo,26.2252,-98.2467,797341,884.4,shape,FALSE,TRUE,America/Chicago,2,78573 78504 78503 78501 78557 78502 78505,1840021024
Birmingham,Birmingham,AL,Alabama,1073,Jefferson,33.5279,-86.7971,782111,526.4,shape,FALSE,TRUE,America/Chicago,2,35218 35214 35215 35217 35210 35211 35212 35213 35224 35221 35222 35203 35207 35206 35205 35204 35209 35208 35094 35254 35068 35061 35228 35234 35235 35233 35243 35242 35249 35201 35202 35220 35232 35237 35238 35246 35255 35259 35261 35270 35282 35283 35285 35287 35290 35291 35292 35294 35295 35298,1840006507
Albuquerque,Albuquerque,NM,New Mexico,35001,Bernalillo,35.1054,-106.6465,769986,1159.8,shape,FALSE,TRUE,America/Denver,2,87123 87112 87113 87110 87111 87114 87109 87108 87101 87102 87105 87104 87107 87106 87120 87119 87125 87131 87153 87154 87158 87181 87184 87187 87190 87191 87192 87194 87196 87197 87198 87199,1840019176
Tulsa,Tulsa,OK,Oklahoma,40143,Tulsa,36.1283,-95.9042,731743,804.2,shape,FALSE,TRUE,America/Chicago,2,74137 74134 74132 74133 74130 74136 74135 74146 74145 74127 74126 74112 74114 74115 74119 74015 74106 74129 74128 74120 74171 74110 74116 74117 74107 74105 74103 74104 74108 74101 74121 74141 74147 74148 74149 74150 74152 74153 74155 74156 74158 74159 74169 74170 74172 74182 74186 74187 74192 74193,1840021672
Fresno,Fresno,CA,California,6019,Fresno,36.783,-119.7939,725276,1805.3,shape,FALSE,TRUE,America/Los_Angeles,2,93740 93741 93730 93650 93702 93703 93701 93706 93704 93705 93722 93728 93720 93721 93726 93727 93711 93710 93707 93708 93709 93714 93715 93716 93717 93718 93724 93729 93744 93745 93750 93755 93760 93761 93764 93765 93771 93772 93774 93775 93776 93777 93778 93779 93790 93791 93792 93793 93794 93844,1840020319
Charleston,Charleston,SC,South Carolina,45019,Charleston,32.8168,-79.9687,706884,503.3,shape,FALSE,TRUE,America/New_York,2,29414 29424 29425 29455 29405 29407 29401 29403 29409 29492 29412 29402 29413 29417 29422 29457,1840015163
Rochester,Rochester,NY,New York,36055,Monroe,43.168,-77.6162,699921,2278,shape,FALSE,TRUE,America/New_York,2,14608 14609 14606 14607 14604 14605 14627 14620 14621 14619 14615 14614 14617 14611 14610 14613 14612 14642 14602 14603 14638 14639 14643 14644 14646 14647 14649 14650 14651 14653,1840000373
Dayton,Dayton,OH,Ohio,39113,Montgomery,39.7805,-84.2003,668825,950,shape,FALSE,TRUE,America/New_York,2,45432 45469 45402 45403 45406 45404 45405 45409 45428 45420 45423 45424 45410 45414 45417 45419 45377 45401 45412 45422 45481 45490,1840034249
Cape Coral,Cape Coral,FL,Florida,12071,Lee,26.6443,-81.9957,654405,724.2,shape,FALSE,TRUE,America/New_York,2,33990 33993 33914 33991 33909 33904 33910 33915,1840015130
Mission Viejo,Mission Viejo,CA,California,6059,Orange,33.6096,-117.6551,642211,2038.4,shape,FALSE,TRUE,America/Los_Angeles,2,92692 92691 92690,1840020580
Colorado Springs,Colorado Springs,CO,Colorado,8041,El Paso,38.8674,-104.7605,638194,917.5,shape,FALSE,TRUE,America/Denver,2,80951 80829 80909 80904 80905 80906 80907 80903 80939 80938 80910 80917 80916 80915 80914 80919 80918 80927 80924 80925 80922 80923 80920 80921 80929 80901 80932 80934 80935 80936 80937 80941 80942 80946 80947 80949 80950 80960 80962 80977 80995 80997,1840018825
Baton Rouge,Baton Rouge,LA,Louisiana,22033,East Baton Rouge,30.442,-91.1311,635671,1001.4,shape,FALSE,TRUE,America/Chicago,2,70836 70808 70809 70802 70803 70801 70806 70807 70805 70820 70825 70819 70813 70812 70815 70814 70816 70804 70821 70822 70823 70827 70831 70833 70835 70873 70874 70891 70892 70893 70894 70895 70898,1840013941
Allentown,Allentown,PA,Pennsylvania,42077,Lehigh,40.5961,-75.4756,627863,2754.2,shape,FALSE,TRUE,America/New_York,2,18104 18101 18103 18102 18109 18001 18105,1840001044
Ogden,Ogden,UT,Utah,49057,Weber,41.2279,-111.9682,622918,1215.9,shape,FALSE,TRUE,America/Denver,2,84404 84401 84403 84408 84244 84407 84409 84415,1840020135
Provo,Provo,UT,Utah,49049,Utah,40.2457,-111.6457,619218,1059.2,shape,FALSE,TRUE,America/Denver,2,84606 84604 84602 84601 84603 84605,1840020174
Knoxville,Knoxville,TN,Tennessee,47093,Knox,35.9692,-83.9496,615829,750.3,shape,FALSE,TRUE,America/New_York,2,37909 37902 37924 37920 37921 37922 37923 37929 37919 37918 37915 37914 37917 37916 37912 37901 37927 37928 37939 37950 37995 37996 37997,1840014486
Grand Rapids,Grand Rapids,MI,Michigan,26081,Kent,42.9619,-85.6562,609023,1708.2,shape,FALSE,TRUE,America/Detroit,2,49546 49506 49505 49503 49507 49504 49508 49501 49502 49514 49515 49523 49555 49588 49599,1840002928
Columbia,Columbia,SC,South Carolina,45079,Richland,34.0378,-80.9036,604065,383.1,shape,FALSE,TRUE,America/New_York,2,29203 29207 29205 29208 29209 29225 29212 29210 29201 29206 29204 29202 29214 29215 29216 29217 29218 29220 29224 29226 29240 29250,1840014730
Albany,Albany,NY,New York,36001,Albany,42.6664,-73.7987,590694,1798.3,shape,FALSE,TRUE,America/New_York,2,12208 12209 12204 12206 12207 12202 12203 12205 12210 12226 12222 12201 12223 12228 12229 12230 12231 12232 12233 12234 12235 12236 12237 12238 12239 12240 12241 12242 12243 12244 12245 12246 12248 12250 12255 12257 12260 12261,1840000417
Bakersfield,Bakersfield,CA,California,6029,Kern,35.3529,-119.0359,571992,1038.8,shape,FALSE,TRUE,America/Los_Angeles,2,93306 93307 93304 93305 93301 93309 93314 93311 93313 93312 93302 93383 93384 93385 93387 93389 93390,1840019148
New Haven,New Haven,CT,Connecticut,9170,South Central Connecticut,41.3113,-72.9246,565572,2804.1,shape,FALSE,TRUE,America/New_York,2,06519 06511 06510 06513 06512 06515 06501 06502 06503 06505 06506 06507 06508 06509 06520 06521 06530 06531 06532 06533 06534 06535 06536 06540,1840004850
Des Moines,Des Moines,IA,Iowa,19153,Polk,41.5725,-93.6105,548926,933.4,shape,FALSE,TRUE,America/Chicago,2,50309 50312 50314 50315 50316 50317 50310 50313 50319 50321 50320 50311 50301 50302 50303 50304 50305 50306 50307 50308 50318 50328 50329 50330 50331 50332 50335 50340 50380 50381 50391 50392 50393 50394 50395 50396 50936 50940 50947 50950 50980 50981 50982 50983,1840007069
Akron,Akron,OH,Ohio,39153,Summit,41.0798,-81.5219,541945,1186.2,shape,FALSE,TRUE,America/New_York,2,44306 44307 44304 44305 44302 44303 44301 44308 44325 44320 44311 44310 44313 44312 44319 44314 44309 44315 44316 44317 44326 44328 44334 44396 44398,1840000791
Palm Bay,Palm Bay,FL,Florida,12009,Brevard,27.9631,-80.6593,534348,542.9,shape,FALSE,TRUE,America/New_York,2,32909 32908 32905 32907 32976 32902 32906 32910 32911,1840015094
Concord,Concord,CA,California,6013,Contra Costa,37.9722,-122.0016,531175,1579.4,shape,FALSE,TRUE,America/Los_Angeles,2,94518 94519 94565 94521 94520 94522 94524 94527,1840018905
Wichita,Wichita,KS,Kansas,20173,Sedgwick,37.6895,-97.3443,509003,938.6,shape,FALSE,TRUE,America/Chicago,2,67230 67235 67260 67217 67216 67215 67214 67213 67212 67211 67210 67219 67218 67223 67220 67226 67202 67203 67204 67205 67206 67207 67208 67209 67201 67275 67276 67277 67278,1840001686
Mesa,Mesa,AZ,Arizona,4013,Maricopa,33.4015,-111.7178,503390,1379.8,shape,FALSE,TRUE,America/Phoenix,2,85208 85209 85201 85202 85203 85204 85205 85206 85207 85215 85213 85212 85210 85211 85214 85216 85274 85275 85277,1840020566
Harrisburg,Harrisburg,PA,Pennsylvania,42043,Dauphin,40.2752,-76.8843,498329,2380.4,shape,FALSE,TRUE,America/New_York,2,17101 17102 17103 17104 17120 17110 17105 17108 17121 17122 17123 17124 17125 17126 17127 17128 17129 17130,1840001288
Staten Island,Staten Island,NY,New York,36085,Richmond,40.5834,-74.1496,495747,3286.2,point,FALSE,TRUE,America/New_York,2,10303 10302 10301 10307 10306 10305 10310 10311 10312 10314 10309 10308 10304 10313,1840034032
Toledo,Toledo,OH,Ohio,39095,Lucas,41.6638,-83.5827,493302,1295,shape,FALSE,TRUE,America/New_York,2,43615 43614 43611 43613 43612 43608 43606 43610 43607 43604 43605 43609 43620 43623 43601 43603 43635 43652 43656 43657 43659 43660 43661 43666 43667 43681 43682 43697 43699,1840000572
Worcester,Worcester,MA,Massachusetts,25027,Worcester,42.2705,-71.8079,486486,2110.2,shape,FALSE,TRUE,America/New_York,2,01608 01610 01609 01602 01603 01604 01605 01606 01607 01601 01613 01614 01615 01653 01655,1840000434
Long Beach,Long Beach,CA,California,6037,Los Angeles,33.7977,-118.167,462293,3522.5,shape,FALSE,TRUE,America/Los_Angeles,2,90822 90804 90805 90806 90807 90802 90803 90808 90831 90814 90813 90810 90815 90840 90801 90809 90832 90833 90842 90844 90846 90847 90848 90853,1840020490
Port St. Lucie,Port St. Lucie,FL,Florida,12111,St. Lucie,27.2796,-80.3884,462047,681.8,shape,FALSE,TRUE,America/New_York,2,34986 34984 34983 34987 34952 34953 34985,1840015119
Little Rock,Little Rock,AR,Arkansas,5119,Pulaski,34.7256,-92.3577,459409,649.4,shape,FALSE,TRUE,America/Chicago,2,72211 72210 72212 72223 72227 72209 72202 72201 72206 72207 72204 72205 72103 72215 72217 72219 72222 72225 72231 72255 72260 72295,1840015509
Reno,Reno,NV,Nevada,32031,Washoe,39.5497,-119.8483,457702,940.5,shape,FALSE,TRUE,America/Los_Angeles,2,89521 89523 89439 89503 89502 89501 89506 89509 89508 89557 89519 89512 89505 89507 89533 89555 89595 89599,1840020121
Spokane,Spokane,WA,Washington,53063,Spokane,47.6671,-117.433,456219,1279.8,shape,FALSE,TRUE,America/Los_Angeles,2,99201 99203 99202 99205 99204 99207 99208 99258 99224 99223 99001 99212 99209 99210 99219 99220 99252 99256 99260,1840021093
Madison,Madison,WI,Wisconsin,55025,Dane,43.0822,-89.393,451652,1268.3,shape,FALSE,TRUE,America/Chicago,2,53706 53704 53705 53703 53726 53792 53719 53718 53715 53714 53717 53716 53711 53713 53701 53702 53707 53708 53725 53774 53777 53782 53783 53784 53785 53786 53788 53790 53793 53794,1840002915
Boise,Boise,ID,Idaho,16001,Ada,43.6005,-116.2308,449776,1072.4,shape,FALSE,TRUE,America/Boise,2,83703 83702 83706 83705 83704 83709 83712 83716 83713 83725 83720 83701 83708 83715 83717 83722 83724 83728 83729 83735 83756 83799,1840027142
Bonita Springs,Bonita Springs,FL,Florida,12071,Lee,26.3558,-81.7859,449527,542.2,shape,FALSE,TRUE,America/New_York,2,33931 34135 34134,1840014227
Denton,Denton,TX,Texas,48121,Denton,33.2175,-97.1418,438492,567.5,shape,FALSE,TRUE,America/Chicago,2,76207 76205 76203 76201 76208 76209 76226 76210 76202 76204 76206,1840019390
Oakland,Oakland,CA,California,6001,Alameda,37.7904,-122.2166,437825,3020.6,shape,FALSE,TRUE,America/Los_Angeles,2,94621 94705 94611 94610 94613 94612 94619 94618 94606 94607 94602 94603 94601 94609 94720 94605 94608 94604 94614 94615 94617 94620 94623 94624 94649 94659 94660 94661 94666,1840020296
Springfield,Springfield,MA,Massachusetts,25013,Hampden,42.1155,-72.5395,437752,1881.5,shape,FALSE,TRUE,America/New_York,2,01151 01144 01118 01119 01129 01128 01107 01105 01104 01103 01109 01108 01101 01102 01111 01115 01138 01139 01152 01199,1840000466
Augusta,Augusta,GA,Georgia,13245,Richmond,33.3645,-82.0708,437257,257.5,shape,FALSE,TRUE,America/New_York,2,30912 30815 30812 30907 30906 30904 30905 30901 30909 30805 30903 30914 30916 30917 30919 30999,1840029462
Kissimmee,Kissimmee,FL,Florida,12097,Osceola,28.3041,-81.4169,431618,1409.2,shape,FALSE,TRUE,America/New_York,2,34743 34746 34741 34744 34745,1840015109
Winston-Salem,Winston-Salem,NC,North Carolina,37067,Forsyth,36.1029,-80.261,427706,721.6,shape,FALSE,TRUE,America/New_York,2,27110 27127 27040 27107 27106 27105 27104 27103 27101 27109 27102 27108 27111 27113 27114 27115 27116 27117 27120 27130 27150 27152 27155 27157 27198 27199,1840015324
Stockton,Stockton,CA,California,6077,San Joaquin,37.9765,-121.3109,413637,1980.5,shape,FALSE,TRUE,America/Los_Angeles,2,95219 95212 95210 95211 95209 95207 95203 95205 95204 95206 95202 95201 95267 95269 95296 95297,1840021517
Syracuse,Syracuse,NY,New York,36067,Onondaga,43.0407,-76.1437,410732,2251.6,shape,FALSE,TRUE,America/New_York,2,13210 13214 13290 13224 13207 13206 13205 13204 13203 13202 13208 13244 13201 13217 13218 13221 13235 13252 13261,1840000378
Chattanooga,Chattanooga,TN,Tennessee,47065,Hamilton,35.066,-85.2481,406849,491.7,shape,FALSE,TRUE,America/New_York,2,37415 37416 37410 37411 37419 37409 37421 37408 37403 37402 37407 37405 37406 37404 37343 37450 37351 37401 37414 37424,1840014569
Lancaster,Lancaster,PA,Pennsylvania,42071,Lancaster,40.042,-76.3012,402476,3096.9,shape,FALSE,TRUE,America/New_York,2,17603 17602 17601 17608 17622 17699,1840003718
Greenville,Greenville,SC,South Carolina,45045,Greenville,34.8354,-82.3646,401443,917.9,shape,FALSE,TRUE,America/New_York,2,29614 29607 29605 29601 29609 29602 29603 29604 29612 29616,1840013501
Durham,Durham,NC,North Carolina,37063,Durham,35.9792,-78.9022,399616,950.8,shape,FALSE,TRUE,America/New_York,2,27703 27705 27704 27707 27701 27708 27712 27713 27706 27710 27715 27717 27722,1840013364
Pensacola,Pensacola,FL,Florida,12033,Escambia,30.4413,-87.1911,398813,917,shape,FALSE,TRUE,America/Chicago,2,32503 32504 32501 32502 32513 32522 32524 32591,1840015005
Fayetteville,Fayetteville,AR,Arkansas,5143,Washington,36.0714,-94.1661,394650,672.8,shape,FALSE,TRUE,America/Chicago,2,72704 72703 72701 72702,1840013368
Arlington,Arlington,TX,Texas,48439,Tarrant,32.6998,-97.125,393469,1585.1,shape,FALSE,TRUE,America/Chicago,2,76011 76005 76001 76002 76006 76018 76013 76012 76010 76017 76016 76015 76014 76003 76004 76007 76019 76094 76096,1840019422
Aurora,Aurora,CO,Colorado,8005,Arapahoe,39.7083,-104.7237,387349,920.3,shape,FALSE,TRUE,America/Denver,2,80247 80137 80045 80018 80019 80016 80014 80015 80012 80013 80010 80017 80011 80040 80041 80042 80044 80046 80047,1840018794
Oxnard,Oxnard,CA,California,6111,Ventura,34.1964,-119.1815,369962,2944.1,shape,FALSE,TRUE,America/Los_Angeles,2,93035 93036 93030 93033 93031 93032 93034,1840020474
Indio,Indio,CA,California,6065,Riverside,33.7346,-116.2346,369654,1042.7,shape,FALSE,TRUE,America/Los_Angeles,2,92241 92201 92203,1840019304
Scranton,Scranton,PA,Pennsylvania,42069,Lackawanna,41.4044,-75.6649,366334,1161.3,shape,FALSE,TRUE,America/New_York,2,18504 18509 18508 18510 18503 18505 18507 18515 18540,1840003389
Victorville,Victorville,CA,California,6071,San Bernardino,34.5277,-117.3536,364015,704.1,shape,FALSE,TRUE,America/Los_Angeles,2,92394 92395 92392 92393,1840021731
Trenton,Trenton,NJ,New Jersey,34021,Mercer,40.2237,-74.7641,362179,4571.3,shape,FALSE,TRUE,America/New_York,2,08638 08611 08618 08629 08609 08608 08601 08603 08604 08605 08607 08625 08645 08646 08647 08666 08695,1840001383
Modesto,Modesto,CA,California,6099,Stanislaus,37.6375,-121.0028,354183,1955.8,shape,FALSE,TRUE,America/Los_Angeles,2,95358 95356 95355 95354 95351 95350 95352 95353 95397,1840020287
Huntsville,Huntsville,AL,Alabama,1089,Madison,34.6981,-86.6412,349482,376.2,shape,FALSE,TRUE,America/Chicago,2,35801 35803 35802 35805 35806 35741 35824 35763 35757 35756 35810 35811 35816 35896 35742 35762 35804 35807 35809 35814 35815 35893 35894 35895 35897 35899,1840005061
Honolulu,Honolulu,HI,Hawaii,15003,Honolulu,21.3294,-157.846,348547,2219.9,shape,FALSE,TRUE,Pacific/Honolulu,2,96859 96858 96850 96819 96820 96822 96826 96813 96815 96814 96817 96816 96818 96848 96801 96802 96803 96804 96805 96806 96807 96808 96809 96810 96811 96812 96823 96828 96830 96836 96837 96838 96839 96840 96841 96843 96844 96846 96847 96849 96898,1840013305
Greensboro,Greensboro,NC,North Carolina,37081,Guilford,36.0956,-79.8271,347130,873.2,shape,FALSE,TRUE,America/New_York,2,27411 27410 27412 27301 27455 27408 27409 27403 27401 27406 27407 27405 27214 27402 27404 27413 27417 27420 27427 27429 27435 27438 27495 27497 27498 27499,1840013356
Anaheim,Anaheim,CA,California,6059,Orange,33.839,-117.8574,347111,2665.3,shape,FALSE,TRUE,America/Los_Angeles,2,92808 92806 92807 92804 92805 92802 92801 92803 92809 92812 92815 92816 92817 92825 92850 92899,1840019322
Corpus Christi,Corpus Christi,TX,Texas,48355,Nueces,27.7254,-97.3767,337230,756.1,shape,FALSE,TRUE,America/Chicago,2,78373 78408 78409 78406 78407 78404 78405 78402 78401 78419 78418 78415 78414 78417 78416 78411 78410 78413 78412 78403 78426 78427 78460 78463 78465 78466 78467 78468 78469 78472 78480,1840019718
Fort Wayne,Fort Wayne,IN,Indiana,18003,Allen,41.0888,-85.1436,337163,923,shape,FALSE,TRUE,America/Indiana/Indianapolis,2,46835 46818 46814 46815 46816 46825 46845 46803 46802 46807 46806 46805 46804 46809 46808 46801 46850 46851 46852 46853 46854 46855 46856 46857 46858 46859 46860 46861 46862 46863 46864 46865 46866 46867 46868 46869 46885 46895 46897,1840008261
Fort Collins,Fort Collins,CO,Colorado,8069,Larimer,40.5477,-105.0656,335398,1142.2,shape,FALSE,TRUE,America/Denver,2,80528 80521 80526 80524 80525 80523 80527 80553,1840020151
Jackson,Jackson,MS,Mississippi,28049,Hinds,32.3157,-90.2125,335171,529.9,shape,FALSE,TRUE,America/Chicago,2,39272 39206 39204 39203 39202 39201 39209 39269 39174 39210 39211 39212 39213 39216 39217 39060 39205 39207 39215 39225 39236 39250 39271 39282 39283 39284 39286 39289 39296 39298,1840014895
Myrtle Beach,Myrtle Beach,SC,South Carolina,45051,Horry,33.7094,-78.8844,332181,594.6,shape,FALSE,TRUE,America/New_York,2,29572 29577 29578,1840014717
Fayetteville,Fayetteville,NC,North Carolina,37051,Cumberland,35.085,-78.9772,328804,543.5,shape,FALSE,TRUE,America/New_York,2,28390 28304 28306 28307 28301 28303 28308 28305 28311 28310 28314 28302 28309,1840013490
Antioch,Antioch,CA,California,6013,Contra Costa,37.9787,-121.796,327216,1522.3,shape,FALSE,TRUE,America/Los_Angeles,2,94531 94509,1840018903
Lansing,Lansing,MI,Michigan,26065,Ingham,42.7142,-84.5601,322561,1114.5,shape,FALSE,TRUE,America/Detroit,2,48912 48933 48915 48911 48910 48906 48901 48909 48916 48919 48922 48924 48929 48930 48937 48951 48956,1840003102
Lexington,Lexington,KY,Kentucky,21067,Fayette,38.0423,-84.4587,321276,437,shape,FALSE,TRUE,America/New_York,2,40526 40509 40504 40502 40503 40508 40505 40507 40517 40536 40513 40511 40510 40516 40515 40514 40506 40512 40522 40523 40524 40533 40544 40546 40550 40555 40574 40575 40576 40577 40578 40579 40580 40581 40582 40583 40588 40591 40598,1840015211
Mobile,Mobile,AL,Alabama,1097,Mobile,30.6782,-88.1162,320855,515.7,shape,FALSE,TRUE,America/Chicago,2,36652 36606 36607 36604 36605 36602 36603 36608 36609 36688 36582 36615 36617 36611 36610 36619 36618 36695 36693 36601 36616 36628 36633 36640 36641 36644 36660 36670 36675 36689 36691,1840006009
Youngstown,Youngstown,OH,Ohio,39099,Mahoning,41.0993,-80.6463,319065,683.3,shape,FALSE,TRUE,America/New_York,2,44502 44503 44504 44505 44506 44507 44509 44511 44510 44555 44501,1840003563
Henderson,Henderson,NV,Nevada,32003,Clark,36.0133,-115.0381,318063,1153.8,shape,FALSE,TRUE,America/Los_Angeles,2,89044 89052 89054 89002 89074 89015 89014 89011 89012 89009 89077,1840020361
Savannah,Savannah,GA,Georgia,13051,Chatham,32.0286,-81.1821,316050,524.8,shape,FALSE,TRUE,America/New_York,2,31302 31409 31408 31401 31405 31404 31407 31406 31421 31419 31415 31403 31412 31416 31418 31420,1840015830
Poughkeepsie,Poughkeepsie,NY,New York,36027,Dutchess,41.695,-73.9211,314159,2380.4,shape,FALSE,TRUE,America/New_York,2,12601 12603 12602,1840000500
Santa Ana,Santa Ana,CA,California,6059,Orange,33.7367,-117.8819,311379,4391.5,shape,FALSE,TRUE,America/Los_Angeles,2,92707 92701 92703 92705 92704 92706 92702 92712 92735 92799,1840021964
Ann Arbor,Ann Arbor,MI,Michigan,26161,Washtenaw,42.2759,-83.731,308983,1671.9,shape,FALSE,TRUE,America/Detroit,2,48103 48104 48105 48108 48109 48113,1840003172
St. Paul,St. Paul,MN,Minnesota,27123,Ramsey,44.9478,-93.1039,308806,2294.1,shape,FALSE,TRUE,America/Chicago,2,55114 55117 55116 55119 55130 55101 55155 55102 55103 55106 55107 55104 55105 55108 55131 55133 55144 55145 55146 55164 55170,1840008940
Newark,Newark,NJ,New Jersey,34013,Essex,40.7245,-74.1725,307355,4915.2,shape,FALSE,TRUE,America/New_York,2,07103 07102 07105 07104 07107 07106 07108 07112 07114 07101 07175 07188 07191 07192 07193 07195 07198 07199,1840002791
Irvine,Irvine,CA,California,6059,Orange,33.6772,-117.7738,304527,1792.1,shape,FALSE,TRUE,America/Los_Angeles,2,92617 92614 92612 92618 92697 92620 92602 92603 92604 92606 92616 92619 92650 92698,1840019325
Santa Rosa,Santa Rosa,CA,California,6097,Sonoma,38.4458,-122.7067,296180,1618.1,shape,FALSE,TRUE,America/Los_Angeles,2,95409 95403 95401 95407 95405 95404 95406,1840021488
Canton,Canton,OH,Ohio,39151,Stark,40.8078,-81.3676,294047,1034.3,shape,FALSE,TRUE,America/New_York,2,44714 44710 44702 44703 44706 44707 44704 44705 44708 44709 44711 44750 44799,1840000963
Asheville,Asheville,NC,North Carolina,37021,Buncombe,35.5707,-82.5537,294013,795.6,shape,FALSE,TRUE,America/New_York,2,28806 28805 28804 28803 28801 28776 28810 28814 28815 28816,1840013411
Flint,Flint,MI,Michigan,26049,Genesee,43.0236,-83.6921,293893,945.2,shape,FALSE,TRUE,America/Detroit,2,48502 48504 48505 48506 48507 48503 48550 48551 48552 48553 48556 48557,1840002949
Winter Haven,Winter Haven,FL,Florida,12105,Polk,28.0118,-81.7014,293093,596.3,shape,FALSE,TRUE,America/New_York,2,33881 33880 33884 33883 33885 33888,1840015970
Anchorage,Anchorage,AK,Alaska,2020,Anchorage,61.1508,-149.1091,290674,65.8,shape,FALSE,TRUE,America/Anchorage,2,99518 99515 99517 99516 99513 99540 99530 99567 99587 99508 99506 99507 99504 99505 99502 99503 99501 99577 99509 99510 99511 99514 99520 99521 99522 99523 99524 99529 99599,1840023385
Lincoln,Lincoln,NE,Nebraska,31109,Lancaster,40.8099,-96.6784,290531,1132.1,shape,FALSE,TRUE,America/Chicago,2,68528 68524 68526 68520 68521 68522 68514 68516 68510 68512 68506 68507 68504 68505 68502 68503 68508 68588 68509 68529 68542 68544 68583,1840009357
Concord,Concord,NC,North Carolina,37025,Cabarrus,35.3933,-80.6369,288783,635.4,shape,FALSE,TRUE,America/New_York,2,28025 28027 28026,1840014559
Jersey City,Jersey City,NJ,New Jersey,34017,Hudson,40.7184,-74.0686,287899,7537.2,shape,FALSE,TRUE,America/New_York,2,07310 07311 07302 07307 07306 07305 07304 07097 07303 07308 07395 07399,1840003600
Springfield,Springfield,MO,Missouri,29077,Greene,37.1943,-93.2916,286280,784.5,shape,FALSE,TRUE,America/Chicago,2,65810 65897 65619 65801 65802 65803 65804 65806 65807 65809 65805 65808 65814 65817 65890 65898 65899,1840009904
Plano,Plano,TX,Texas,48085,Collin,33.0502,-96.7486,284948,1534.7,shape,FALSE,TRUE,America/Chicago,2,75093 75023 75025 75024 75074 75075 75026 75086,1840020662
Shreveport,Shreveport,LA,Louisiana,22017,Caddo,32.4653,-93.7955,283536,664.7,shape,FALSE,TRUE,America/Chicago,2,71129 71101 71103 71104 71105 71106 71107 71108 71109 71119 71118 71102 71120 71130 71133 71134 71135 71136 71138 71148 71149 71151 71152 71153 71154 71156 71161 71162 71163 71164 71165 71166,1840015768
Davenport,Davenport,IA,Iowa,19163,Scott,41.5565,-90.6053,281333,614,shape,FALSE,TRUE,America/Chicago,2,52802 52803 52801 52806 52807 52804 52805 52808 52809,1840007081
Lubbock,Lubbock,TX,Texas,48303,Lubbock,33.5657,-101.8879,280890,722.2,shape,FALSE,TRUE,America/Chicago,2,79406 79423 79424 79416 79412 79410 79407 79414 79411 79404 79401 79403 79402 79415 79413 79408 79409 79430 79452 79453 79457 79464 79490 79491 79493 79499,1840020604
Lakeland,Lakeland,FL,Florida,12105,Polk,28.0557,-81.9545,280346,663.9,shape,FALSE,TRUE,America/New_York,2,33813 33803 33801 33805 33815 33811 33802 33804 33806,1840015108
South Bend,South Bend,IN,Indiana,18141,St. Joseph,41.6767,-86.2696,278061,948.2,shape,FALSE,TRUE,America/Indiana/Indianapolis,2,46616 46635 46628 46601 46613 46617 46619 46614 46615 46626 46634 46660 46680 46699,1840009241
Chula Vista,Chula Vista,CA,California,6073,San Diego,32.6281,-117.0144,276103,2147.6,shape,FALSE,TRUE,America/Los_Angeles,2,91911 91910 91913 91915 91914 91902 91908 91909 91912 91921,1840019350
Chandler,Chandler,AZ,Arizona,4013,Maricopa,33.2825,-111.8514,275618,1624.6,shape,FALSE,TRUE,America/Phoenix,2,85248 85249 85226 85224 85225 85286 85246,1840019309
Rockford,Rockford,IL,Illinois,17201,Winnebago,42.2596,-89.064,273237,881.3,shape,FALSE,TRUE,America/Chicago,2,61101 61114 61109 61108 61104 61107 61103 61102 61105 61106 61110 61125 61126,1840009132
Reading,Reading,PA,Pennsylvania,42011,Berks,40.34,-75.9267,272712,3710.8,shape,FALSE,TRUE,America/New_York,2,19601 19604 19602 19611 19603 19612,1840001185
Eugene,Eugene,OR,Oregon,41039,Lane,44.0564,-123.1174,270990,1543.4,shape,FALSE,TRUE,America/Los_Angeles,2,97405 97404 97401 97403 97402 97440,1840020007
Wilmington,Wilmington,NC,North Carolina,37129,New Hanover,34.2099,-77.8866,268625,878.3,shape,FALSE,TRUE,America/New_York,2,28409 28401 28403 28405 28412 28402 28406 28408,1840015576
Santa Clarita,Santa Clarita,CA,California,6037,Los Angeles,34.4175,-118.4964,268273,1232.5,shape,FALSE,TRUE,America/Los_Angeles,2,91351 91321 91350 91355 91354 91387 91322 91382 91385 91386,1840021864
Gilbert,Gilbert,AZ,Arizona,4013,Maricopa,33.31,-111.7463,267267,1503.9,shape,FALSE,TRUE,America/Phoenix,2,85233 85234 85236 85297 85296 85295 85298 85244 85299,1840021947
Salem,Salem,OR,Oregon,41047,Marion,44.9233,-123.0244,266420,1387.5,shape,FALSE,TRUE,America/Los_Angeles,2,97302 97301 97306 97304 97310 97317 97309 97311 97312 97314,1840021224
Killeen,Killeen,TX,Texas,48027,Bell,31.0753,-97.7297,265921,1086.4,shape,FALSE,TRUE,America/Chicago,2,76541 76543 76542 76549 76540 76547,1840020854
Round Lake Beach,Round Lake Beach,IL,Illinois,17097,Lake,42.3791,-88.0811,264451,2084.1,shape,FALSE,TRUE,America/Chicago,2,60073,1840011171
Columbus,Columbus,GA,Georgia,13215,Muscogee,32.51,-84.8771,264282,364.8,shape,FALSE,TRUE,America/New_York,2,31820 31829 31909 31904 31905 31906 31907 31901 31903 31808 31902 31908 31914 31917 31993 31995 31997 31998 31999,1840014887
North Las Vegas,North Las Vegas,NV,Nevada,32003,Clark,36.2883,-115.0888,264022,996.2,shape,FALSE,TRUE,America/Los_Angeles,2,89032 89031 89030 89086 89084 89085 89081 89115 89033 89087,1840020363
Kennewick,Kennewick,WA,Washington,53005,Benton,46.1978,-119.1732,259995,1138.5,shape,FALSE,TRUE,America/Los_Angeles,2,99337 99336 99338,1840018481
St. Petersburg,St. Petersburg,FL,Florida,12103,Pinellas,27.7931,-82.6652,259343,1620.2,shape,FALSE,TRUE,America/New_York,2,33707 33702 33762 33713 33712 33711 33710 33716 33715 33714 33705 33703 33704 33701 33729 33731 33732 33733 33734 33742 33743 33747,1840015977
Tallahassee,Tallahassee,FL,Florida,12073,Leon,30.4551,-84.2527,258696,751.3,shape,FALSE,TRUE,America/New_York,2,32310 32312 32313 32399 32307 32306 32304 32303 32301 32309 32308 32311 32302 32314 32315 32316,1840015913
Laredo,Laredo,TX,Texas,48479,Webb,27.5625,-99.4874,255293,922.7,shape,FALSE,TRUE,America/Chicago,2,78046 78045 78043 78040 78041 78042,1840021002
Irving,Irving,TX,Texas,48113,Dallas,32.8583,-96.9702,254962,1469.7,shape,FALSE,TRUE,America/Chicago,2,75063 75060 75038 75039 75062 75061 75014 75015 75016 75017 75059 75326 75368,1840019438
Peoria,Peoria,IL,Illinois,17143,Peoria,40.752,-89.6154,253467,908.7,shape,FALSE,TRUE,America/Chicago,2,61625 61615 61614 61605 61603 61604 61602 61606 61601 61613 61629 61630 61634 61636 61637 61638 61639 61643 61651 61652 61653 61654 61655 61656,1840009373
Montgomery,Montgomery,AL,Alabama,1101,Montgomery,32.3482,-86.2668,251158,482.6,shape,FALSE,TRUE,America/Chicago,2,36112 36113 36110 36111 36116 36114 36115 36109 36130 36117 36101 36105 36104 36107 36106 36057 36108 36118 36120 36121 36123 36124 36125 36131 36132 36135 36140 36141 36142 36177 36191,1840008353
Chesapeake,Chesapeake,VA,Virginia,51550,Chesapeake,36.6778,-76.3023,249377,284.5,shape,FALSE,TRUE,America/New_York,2,23325 23324 23323 23322 23321 23320 23326 23327 23328,1840003874
Glendale,Glendale,AZ,Arizona,4013,Maricopa,33.5791,-112.2311,248083,1451.1,shape,FALSE,TRUE,America/Phoenix,2,85301 85303 85302 85306 85309 85308 85355 85340 85305 85304 85307 85310 85311 85312 85318,1840020563
York,York,PA,Pennsylvania,42133,York,39.9651,-76.7315,247176,3267,shape,FALSE,TRUE,America/New_York,2,17404 17401 17403 17405,1840001472
Nashua,Nashua,NH,New Hampshire,33011,Hillsborough,42.7491,-71.491,245209,1138.8,shape,FALSE,TRUE,America/New_York,2,03062 03063 03060 03064 03061,1840002984
Garland,Garland,TX,Texas,48113,Dallas,32.91,-96.6304,244026,1649.6,shape,FALSE,TRUE,America/Chicago,2,75043 75044 75041 75040 75042 75046 75047 75049,1840020707
Scottsdale,Scottsdale,AZ,Arizona,4013,Maricopa,33.6872,-111.8651,240537,504.7,shape,FALSE,TRUE,America/Phoenix,2,85259 85258 85251 85250 85257 85255 85254 85266 85262 85260 85252 85261 85267 85271,1840021940
Lafayette,Lafayette,LA,Louisiana,22055,Lafayette,30.2082,-92.0325,237565,839.2,shape,FALSE,TRUE,America/Chicago,2,70508 70507 70506 70503 70501 70502 70504 70505 70509 70593 70596 70598,1840015044
Norfolk,Norfolk,VA,Virginia,51710,Norfolk,36.8945,-76.259,236973,1717.4,shape,FALSE,TRUE,America/New_York,2,23509 23508 23507 23504 23503 23502 23505 23518 23510 23511 23513 23517 23551 23523 23501 23506 23514 23515 23519 23529 23541,1840003869
Arlington,Arlington,VA,Virginia,51013,Arlington,38.8786,-77.1011,235845,3502.7,shape,FALSE,FALSE,America/New_York,2,22209 22203 22202 22201 22207 22206 22205 22204 22214 22211 22213 22210 22212 22215 22216 22217 22219 22225 22226 22227 22230 22240 22241 22242 22243 22244 22245 22246 22350,1840006112
Appleton,Appleton,WI,Wisconsin,55087,Outagamie,44.278,-88.3892,233947,1145.4,shape,FALSE,TRUE,America/Chicago,2,54914 54915 54913 54911 54912 54919,1840002400
Aguadilla,Aguadilla,PR,Puerto Rico,72005,Aguadilla,18.4382,-67.1537,228854,1751.5,shape,FALSE,FALSE,America/Puerto_Rico,2,00603 00605,1630035605
Rock Hill,Rock Hill,SC,South Carolina,45091,York,34.9415,-81.0241,228811,655.4,shape,FALSE,TRUE,America/New_York,2,29732 29733 29730 29731,1840014618
Fremont,Fremont,CA,California,6001,Alameda,37.5265,-121.9843,228795,1131,shape,FALSE,TRUE,America/Los_Angeles,2,94560 94536 94538 94539 94555 94537,1840020292
Fargo,Fargo,ND,North Dakota,38017,Cass,46.8651,-96.8292,228364,968.3,shape,FALSE,TRUE,America/Chicago,2,58102 58104 58103 58105 58106 58107 58108 58109 58121 58122 58124 58125 58126,1840000177
Gulfport,Gulfport,MS,Mississippi,28047,Harrison,30.4274,-89.0704,228022,503.4,shape,FALSE,TRUE,America/Chicago,2,39501 39503 39507 39502 39505 39506,1840013947
Bremerton,Bremerton,WA,Washington,53035,Kitsap,47.5436,-122.7121,226805,597.3,shape,FALSE,TRUE,America/Los_Angeles,2,98312 98314 98310 98337,1840018410
Green Bay,Green Bay,WI,Wisconsin,55009,Brown,44.5148,-87.9895,225633,907.1,shape,FALSE,TRUE,America/Chicago,2,54304 54303 54302 54301 54311 54305 54306 54308,1840002344
Enterprise,Enterprise,NV,Nevada,32003,Clark,36.0091,-115.2278,225461,1319,shape,FALSE,FALSE,America/Los_Angeles,2,89178 89183 89139 89141 89148 89113 89118 89119 89123,1840033827
Hialeah,Hialeah,FL,Florida,12086,Miami-Dade,25.8696,-80.3045,222996,3989.5,shape,FALSE,TRUE,America/New_York,2,33014 33016 33010 33012 33013 33018,1840015157
Deltona,Deltona,FL,Florida,12127,Volusia,28.905,-81.2137,221137,976.3,shape,FALSE,TRUE,America/New_York,2,32725 32738 32739,1840015072
San Bernardino,San Bernardino,CA,California,6071,San Bernardino,34.1416,-117.2943,221041,1373.7,shape,FALSE,TRUE,America/Los_Angeles,2,92404 92369 92401 92407 92405 92408 92411 92410 92415 92346 92403 92406 92413 92418 92423 92427,1840021728
Gainesville,Gainesville,FL,Florida,12001,Alachua,29.6804,-82.3459,220929,860.2,shape,FALSE,TRUE,America/New_York,2,32608 32609 32607 32610 32612 32653 32603 32601 32605 32604 32611 32614 32627 32635,1840014022
Spring Valley,Spring Valley,NV,Nevada,32003,Clark,36.0952,-115.2636,220114,2393.6,shape,FALSE,FALSE,America/Los_Angeles,2,89147 89146 89103 89148 89113 89117 89118 89150 89164 89173,1840033832
Tacoma,Tacoma,WA,Washington,53053,Pierce,47.2431,-122.4531,219234,1702.7,shape,FALSE,TRUE,America/Los_Angeles,2,98422 98403 98404 98405 98408 98409 98402 98406 98407 98466 98465 98416 98418 98444 98421 98401 98411 98412 98413 98415 98417 98419 98448 98471 98481 98490,1840021129
Roanoke,Roanoke,VA,Virginia,51770,Roanoke,37.2785,-79.9581,218533,900.9,shape,FALSE,TRUE,America/New_York,2,24019 24014 24015 24016 24017 24011 24012 24013 24022 24001 24002 24003 24004 24005 24006 24007 24008 24009 24010 24023 24024 24025 24026 24027 24028 24029 24030 24031 24032 24033 24034 24035 24036 24037 24038 24040 24042 24043,1840003858
Brownsville,Brownsville,TX,Texas,48061,Cameron,25.9975,-97.458,215269,548.4,shape,FALSE,TRUE,America/Chicago,2,78521 78520 78526 78575 78578 78566 78522,1840019743
College Station,College Station,TX,Texas,48041,Brazos,30.5852,-96.2959,213177,909,shape,FALSE,TRUE,America/Chicago,2,77843 77840 77845 77841 77842 77844 77881,1840019570
Olympia,Olympia,WA,Washington,53067,Thurston,47.0417,-122.8959,210877,1168.7,shape,FALSE,TRUE,America/Los_Angeles,2,98502 98501 98506 98504 98507 98508,1840019865
Clarksville,Clarksville,TN,Tennessee,47125,Montgomery,36.5692,-87.3413,210551,650.9,shape,FALSE,TRUE,America/Chicago,2,42223 37043 37042 37040 37041 37044,1840014421
Yonkers,Yonkers,NY,New York,36119,Westchester,40.9466,-73.8673,209780,4498.4,shape,FALSE,TRUE,America/New_York,2,10708 10703 10701 10707 10705 10704 10710 10702,1840003478
Moreno Valley,Moreno Valley,CA,California,6065,Riverside,33.9244,-117.2045,209578,1577.1,shape,FALSE,TRUE,America/Los_Angeles,2,92551 92553 92555 92557 92552 92554 92556,1840020552
Thousand Oaks,Thousand Oaks,CA,California,6111,Ventura,34.1914,-118.8756,209570,884.1,shape,FALSE,TRUE,America/Los_Angeles,2,91320 91360 91361 91362 91319 91358 91359,1840021844
Portland,Portland,ME,Maine,23005,Cumberland,43.6773,-70.2715,209491,1223.9,shape,FALSE,TRUE,America/New_York,2,04101 04102 04103 04108 04109 04019 04104 04112 04116 04122 04123 04124,1840000327
Fontana,Fontana,CA,California,6071,San Bernardino,34.0968,-117.4599,209279,1867.1,shape,FALSE,TRUE,America/Los_Angeles,2,92335 92336 92337 92331 92334 92402,1840020402
Hickory,Hickory,NC,North Carolina,37035,Catawba,35.741,-81.3223,206008,539.2,shape,FALSE,TRUE,America/New_York,2,28601 28602 28603,1840014524
Amarillo,Amarillo,TX,Texas,48375,Potter,35.1984,-101.8316,205903,750.2,shape,FALSE,TRUE,America/Chicago,2,79121 79109 79101 79102 79103 79104 79106 79107 79118 79111 79110 79114 79116 79117 79120 79166 79168 79172 79174 79178 79189,1840019156
Sioux Falls,Sioux Falls,SD,South Dakota,46099,Minnehaha,43.5396,-96.7311,204484,926,shape,FALSE,TRUE,America/Chicago,2,57108 57104 57105 57106 57107 57103 57197 57110 57117 57101 57109 57186 57193,1840002648
Evansville,Evansville,IN,Indiana,18163,Vanderburgh,37.9881,-87.5341,203661,953.2,shape,FALSE,TRUE,America/Chicago,2,47714 47715 47710 47711 47713 47708 47701 47702 47703 47704 47705 47706 47716 47719 47722 47724 47728 47730 47731 47732 47733 47734 47735 47736 47737 47740 47747 47750,1840013730
Huntington,Huntington,WV,West Virginia,54011,Cabell,38.4109,-82.4345,202754,1110.2,shape,FALSE,TRUE,America/New_York,2,25703 25702 25701 25705 25704 25755 25706 25708 25709 25710 25711 25712 25713 25714 25716 25717 25718 25719 25720 25721 25722 25723 25724 25725 25726 25727 25728 25729 25772 25773 25774 25775 25776 25777 25778,1840006211
Waterbury,Waterbury,CT,Connecticut,9140,Naugatuck Valley,41.5582,-73.0361,202422,1547.8,shape,FALSE,TRUE,America/New_York,2,06708 06702 06704 06705 06706 06710 06701 06703 06720 06721 06722 06723 06724 06725 06726,1840004851
Frisco,Frisco,TX,Texas,48085,Collin,33.156,-96.8216,202075,1137.6,shape,FALSE,TRUE,America/Chicago,2,75034 75036 75033 75035,1840020654
Lorain,Lorain,OH,Ohio,39093,Lorain,41.4409,-82.184,201808,1065.4,shape,FALSE,TRUE,America/New_York,2,44052 44053 44055,1840000644
Kalamazoo,Kalamazoo,MI,Michigan,26077,Kalamazoo,42.2749,-85.5882,200838,1146.8,shape,FALSE,TRUE,America/Detroit,2,49001 49006 49007 49008 49074 49005 49019,1840003185
Galveston,Galveston,TX,Texas,48167,Galveston,29.2484,-94.8913,200451,501.2,shape,FALSE,TRUE,America/Chicago,2,77551 77550 77555 77554 77552 77553,1840020970
Spartanburg,Spartanburg,SC,South Carolina,45083,Spartanburg,34.9442,-81.9251,200000,730.2,shape,FALSE,TRUE,America/New_York,2,29302 29301 29307 29306 29304 29319,1840015482
Santa Barbara,Santa Barbara,CA,California,6083,Santa Barbara,34.4285,-119.7202,199023,1754.6,shape,FALSE,TRUE,America/Los_Angeles,2,93105 93101 93103 93109 93102 93120 93121 93130 93140 93190,1840021829
Sunrise Manor,Sunrise Manor,NV,Nevada,32003,Clark,36.1783,-115.0487,198325,2271.3,shape,FALSE,FALSE,America/Los_Angeles,2,89104 89142 89110 89115 89156 89121 89122 89162 89180,1840033833
Huntington Beach,Huntington Beach,CA,California,6059,Orange,33.696,-118.0018,197481,2825.9,shape,FALSE,TRUE,America/Los_Angeles,2,92648 92649 92646 92647 90742 92605 92615,1840020578
Grand Prairie,Grand Prairie,TX,Texas,48113,Dallas,32.6871,-97.0208,197279,1050.5,shape,FALSE,TRUE,America/Chicago,2,75052 75050 75051 75054 75104 75053 75265,1840020709
Overland Park,Overland Park,KS,Kansas,20091,Johnson,38.887,-94.687,196676,1009.4,shape,FALSE,TRUE,America/Chicago,2,66214 66210 66211 66212 66213 66221 66223 66209 66202 66207 66204 66013 66251 66085 66224 66201 66225 66276 66282 66283,1840003834
McKinney,McKinney,TX,Texas,48085,Collin,33.2016,-96.667,196160,1131,shape,FALSE,TRUE,America/Chicago,2,75069 75072 75070 75071,1840020657
Waco,Waco,TX,Texas,48309,McLennan,31.5599,-97.1882,195709,604.6,shape,FALSE,TRUE,America/Chicago,2,76798 76710 76711 76712 76708 76701 76707 76706 76704 76702 76703 76714 76797 76799,1840022140
Hagerstown,Hagerstown,MD,Maryland,24043,Washington,39.6401,-77.7217,195261,1334,shape,FALSE,TRUE,America/New_York,2,21742 21740 21741 21747 21749,1840005613
Glendale,Glendale,CA,California,6037,Los Angeles,34.1819,-118.2468,194512,2464,shape,FALSE,TRUE,America/Los_Angeles,2,91210 91214 91201 91205 91208 91203 91202 91204 91207 91206 91046 91020 91209 91221 91222 91225 91226,1840020483
Nampa,Nampa,ID,Idaho,16027,Canyon,43.5844,-116.5638,193935,1139.2,shape,FALSE,TRUE,America/Boise,2,83651 83687 83686,1840020041
Peoria,Peoria,AZ,Arizona,4013,Maricopa,33.7843,-112.2989,191292,419.5,shape,FALSE,TRUE,America/Phoenix,2,85373 85381 85383 85382 85324 85345 85380 85385,1840020567
Cedar Rapids,Cedar Rapids,IA,Iowa,19113,Linn,41.9662,-91.6783,191104,724,shape,FALSE,TRUE,America/Chicago,2,52404 52401 52405 52411 52402 52403 52406 52407 52408 52409 52410 52497 52498 52499,1840000471
Vancouver,Vancouver,WA,Washington,53011,Clark,45.6366,-122.5967,190700,1510.4,shape,FALSE,TRUE,America/Los_Angeles,2,98684 98664 98665 98660 98661 98662 98663 98682 98683 98687,1840021189
Paradise,Paradise,NV,Nevada,32003,Clark,36.0872,-115.1355,189733,1727.6,shape,FALSE,FALSE,America/Los_Angeles,2,89103 89109 89158 89169 89118 89119 89121 89120 89123 89111 89132 89136 89154 89157 89159 89160 89170 89177 89193,1840033743
Ocala,Ocala,FL,Florida,12083,Marion,29.178,-82.1511,186840,518.8,shape,FALSE,TRUE,America/New_York,2,34475 34474 34471 34470 34477 34478 34483,1840015067
Erie,Erie,PA,Pennsylvania,42049,Erie,42.1167,-80.0733,185556,1913.7,shape,FALSE,TRUE,America/New_York,2,16546 16510 16508 16507 16502 16504 16503 16550 16501 16511 16512 16514 16522 16530 16534 16538 16541 16544 16553,1840000478
Newport News,Newport News,VA,Virginia,51700,Newport News,37.1051,-76.5185,185118,1035.9,shape,FALSE,TRUE,America/New_York,2,23604 23605 23606 23607 23601 23602 23603 23608 23609 23612 23628 23630,1840003862
Frederick,Frederick,MD,Maryland,24021,Frederick,39.4337,-77.4141,184991,1263.9,shape,FALSE,TRUE,America/New_York,2,21705 21702 21701 21709,1840005710
Murfreesboro,Murfreesboro,TN,Tennessee,47149,Rutherford,35.849,-86.4121,184763,926.1,shape,FALSE,TRUE,America/Chicago,2,37132 37130 37129 37128 37127 37131 37133,1840014495
Fort Lauderdale,Fort Lauderdale,FL,Florida,12011,Broward,26.1412,-80.1464,182673,2039.5,shape,FALSE,TRUE,America/New_York,2,33301 33304 33305 33306 33308 33309 33334 33316 33315 33312 33311 33320 33336 33338 33339 33340 33346 33348 33394,1840014236
Aurora,Aurora,IL,Illinois,17089,Kane,41.7638,-88.2902,181405,1555.1,shape,FALSE,TRUE,America/Chicago,2,60505 60506 60504 60502 60503 60519 60507 60568 60569 60572 60598 60599,1840007034
Tempe,Tempe,AZ,Arizona,4013,Maricopa,33.3881,-111.9319,181005,1748.3,shape,FALSE,TRUE,America/Phoenix,2,85281 85282 85283 85284 85280 85285 85287 85288,1840021942
Danbury,Danbury,CT,Connecticut,9190,Western Connecticut,41.4015,-73.4709,180143,794.2,shape,FALSE,TRUE,America/New_York,2,06810 06811 06813,1840004837
Spring Hill,Spring Hill,FL,Florida,12053,Hernando,28.4798,-82.53,178833,753.2,shape,FALSE,FALSE,America/New_York,2,34608 34609 34604 34606 34611,1840014105
Gastonia,Gastonia,NC,North Carolina,37071,Gaston,35.2494,-81.1854,178220,598.7,shape,FALSE,TRUE,America/New_York,2,28054 28056 28052,1840013468
Salinas,Salinas,CA,California,6053,Monterey,36.6883,-121.6317,177410,2672.8,shape,FALSE,TRUE,America/Los_Angeles,2,93901 93905 93906 93902 93915,1840021632
Fredericksburg,Fredericksburg,VA,Virginia,51630,Fredericksburg,38.2992,-77.4872,176791,1044,shape,FALSE,TRUE,America/New_York,2,22401 22404 22412,1840003845
Ontario,Ontario,CA,California,6071,San Bernardino,34.0393,-117.6064,176326,1362,shape,FALSE,TRUE,America/Los_Angeles,2,91762 91761 91764 91743 91758,1840020410
Elk Grove,Elk Grove,CA,California,6067,Sacramento,38.4161,-121.3842,176105,1596.1,shape,FALSE,TRUE,America/Los_Angeles,2,95624 95757 95758 95759,1840020245
Gainesville,Gainesville,GA,Georgia,13139,Hall,34.2902,-83.8294,175569,493.1,shape,FALSE,TRUE,America/New_York,2,30501 30507 30504,1840013612
Cary,Cary,NC,North Carolina,37183,Wake,35.7819,-78.8195,174880,1126.5,shape,FALSE,TRUE,America/New_York,2,27560 27518 27519 27511 27513 27512,1840016196
Rancho Cucamonga,Rancho Cucamonga,CA,California,6071,San Bernardino,34.1247,-117.5667,174696,1450.5,shape,FALSE,TRUE,America/Los_Angeles,2,91730 91701 91737 91739 91729,1840020411
Oceanside,Oceanside,CA,California,6073,San Diego,33.2247,-117.3083,173722,1625.3,shape,FALSE,TRUE,America/Los_Angeles,2,92058 92054 92057 92056 92049 92051 92052 92068,1840020623
Garden Grove,Garden Grove,CA,California,6059,Orange,33.7787,-117.9601,171637,3691.2,shape,FALSE,TRUE,America/Los_Angeles,2,92843 92840 92841 92844 92845 92842 92846,1840020577
Lancaster,Lancaster,CA,California,6037,Los Angeles,34.6935,-118.1753,171465,702.2,shape,FALSE,TRUE,America/Los_Angeles,2,93535 93534 93536 93539 93584,1840020516
Hemet,Hemet,CA,California,6065,Riverside,33.7341,-116.9969,170621,1182.9,shape,FALSE,TRUE,America/Los_Angeles,2,92545 92543 92546,1840020550
Pembroke Pines,Pembroke Pines,FL,Florida,12011,Broward,26.0128,-80.3382,170472,2014,shape,FALSE,TRUE,America/New_York,2,33029 33028 33025 33024 33026 33023 33027 33084,1840015141
Panama City,Panama City,FL,Florida,12005,Bay,30.1995,-85.6003,169810,373.9,shape,FALSE,TRUE,America/Chicago,2,32401 32404 32405 32402 32412,1840015034
Vallejo,Vallejo,CA,California,6095,Solano,38.1125,-122.2342,169541,1588.3,shape,FALSE,TRUE,America/Los_Angeles,2,94592 94591 94589 94590,1840021499
Manchester,Manchester,NH,New Hampshire,33011,Hillsborough,42.9848,-71.4447,169097,1343.1,shape,FALSE,TRUE,America/New_York,2,03109 03104 03101 03103 03102 03105 03108 03111,1840002983
Medford,Medford,OR,Oregon,41029,Jackson,42.3372,-122.854,168959,1191.6,shape,FALSE,TRUE,America/Los_Angeles,2,97504 97501,1840020076
Bayamn,Bayamon,PR,Puerto Rico,72021,Bayamn,18.3794,-66.1635,168698,2404.7,shape,FALSE,FALSE,America/Puerto_Rico,2,00959 00957 00956 00934 00960 00961 00916,1630035622
Mauldin,Mauldin,SC,South Carolina,45045,Greenville,34.7821,-82.3032,168313,808.4,shape,FALSE,TRUE,America/New_York,2,29662 29607 29681,1840015476
Santa Cruz,Santa Cruz,CA,California,6087,Santa Cruz,36.9789,-122.0346,167835,1859.8,shape,FALSE,TRUE,America/Los_Angeles,2,95065 95064 95060 95062 95061 95063 95067,1840021579
Palmdale,Palmdale,CA,California,6037,Los Angeles,34.5944,-118.1057,166895,607.5,shape,FALSE,TRUE,America/Los_Angeles,2,93591 93552 93551 93550 93590 93599,1840020502
Norwich,Norwich,CT,Connecticut,9180,Southeastern Connecticut,41.5495,-72.0882,166885,551.1,shape,FALSE,TRUE,America/New_York,2,06380 06389 06360,1840004828
Muskegon,Muskegon,MI,Michigan,26121,Muskegon,43.2281,-86.2562,166847,1045.2,shape,FALSE,TRUE,America/Detroit,2,49442 49443 49440 49441,1840002870
Leesburg,Leesburg,FL,Florida,12069,Lake,28.7672,-81.8962,166200,270.6,shape,FALSE,TRUE,America/New_York,2,34748 34762 34736 34749 34789,1840015083
High Point,High Point,NC,North Carolina,37081,Guilford,35.991,-79.9937,164836,774.3,shape,FALSE,TRUE,America/New_York,2,27265 27282 27235 27268 27262 27263 27260 27261 27264,1840014479
Tuscaloosa,Tuscaloosa,AL,Alabama,1125,Tuscaloosa,33.2348,-87.5268,164414,660,shape,FALSE,TRUE,America/Chicago,2,35475 35476 35405 35404 35406 35401 35487 35403 35407 35486,1840005563
Visalia,Visalia,CA,California,6107,Tulare,36.3276,-119.3269,163681,1433,shape,FALSE,TRUE,America/Los_Angeles,2,93277 93291 93292 93278 93279 93290,1840021639
Marysville,Marysville,WA,Washington,53061,Snohomish,48.0809,-122.1561,162664,1318.1,shape,FALSE,TRUE,America/Los_Angeles,2,98271 98270,1840019789
Merced,Merced,CA,California,6047,Merced,37.3057,-120.4779,160638,1455.9,shape,FALSE,TRUE,America/Los_Angeles,2,95348 95340 95341 95343,1840020313
Hayward,Hayward,CA,California,6001,Alameda,37.6328,-122.0766,160602,1353.4,shape,FALSE,TRUE,America/Los_Angeles,2,94541 94542 94544 94545 94587 94540 94543 94557,1840020293
Lafayette,Lafayette,IN,Indiana,18157,Tippecanoe,40.3991,-86.8593,160543,930.9,shape,FALSE,TRUE,America/Indiana/Indianapolis,2,47909 47905 47904 47901 47902 47903,1840008354
Springfield,Springfield,IL,Illinois,17167,Sangamon,39.7709,-89.654,159671,721,shape,FALSE,TRUE,America/Chicago,2,62711 62712 62629 62702 62703 62701 62706 62707 62704 62705 62715 62716 62719 62722 62726 62736 62739 62756 62757 62761 62762 62763 62765 62766 62767 62769 62776 62777 62781 62786 62796,1840009517
Corona,Corona,CA,California,6065,Riverside,33.8616,-117.5649,158346,1532.6,shape,FALSE,TRUE,America/Los_Angeles,2,92882 92880 92881 92879 92877 92878,1840019305
Paterson,Paterson,NJ,New Jersey,34031,Passaic,40.9147,-74.1624,157864,7244.8,shape,FALSE,TRUE,America/New_York,2,07522 07524 07514 07513 07505 07501 07504 07503 07502 07507 07509 07510 07533 07543 07544,1840000838
Alexandria,Alexandria,VA,Virginia,51510,Alexandria,38.8185,-77.0861,157594,4074.1,shape,FALSE,TRUE,America/New_York,2,22302 22301 22304 22305 22311 22314 20598 22320 22331 22332 22333 22334,1840003837
Macon,Macon,GA,Georgia,13021,Bibb,32.8065,-83.6974,156554,242.4,shape,FALSE,TRUE,America/New_York,2,31210 31052 31211 31213 31216 31217 31220 31207 31206 31204 31201 31202 31203 31205 31208 31209 31221 31294 31295 31296 31297,1840043455
Binghamton,Binghamton,NY,New York,36007,Broome,42.1014,-75.9093,156375,1754.4,shape,FALSE,TRUE,America/New_York,2,13904 13905 13901 13903,1840000460
Lakewood,Lakewood,CO,Colorado,8059,Jefferson,39.6977,-105.1172,156149,1387.3,shape,FALSE,TRUE,America/Denver,2,80232 80235 80214 80215 80227 80226 80228 80201 80225,1840020198
Kansas City,Kansas City,KS,Kansas,20209,Wyandotte,39.1235,-94.7443,155438,481.1,shape,FALSE,TRUE,America/Chicago,2,66101 66102 66103 66104 66105 66106 66109 66160 66112 66111 66115 66118 66110 66117 66119,1840001626
Odessa,Odessa,TX,Texas,48135,Ector,31.8801,-102.3448,155039,850.4,shape,FALSE,TRUE,America/Chicago,2,79762 79761 79763 79765 79768,1840020794
Sunnyvale,Sunnyvale,CA,California,6085,Santa Clara,37.3836,-122.0255,154573,2705.4,shape,FALSE,TRUE,America/Los_Angeles,2,94085 94086 94087 94089 94088,1840021573
New Bedford,New Bedford,MA,Massachusetts,25005,Bristol,41.6697,-70.9428,153701,1942.4,shape,FALSE,TRUE,America/New_York,2,02740 02744 02745 02746 02741 02742,1840003219
Hollywood,Hollywood,FL,Florida,12011,Broward,26.0293,-80.1679,152764,2164.4,shape,FALSE,TRUE,America/New_York,2,33024 33021 33023 33022 33020 33004 33316 33312 33019 33081 33082 33302,1840015144
South Lyon,South Lyon,MI,Michigan,26125,Oakland,42.4614,-83.6526,152132,1216.5,shape,FALSE,TRUE,America/Detroit,2,48178,1840002432
Escondido,Escondido,CA,California,6073,San Diego,33.1348,-117.0723,151114,1562.3,shape,FALSE,TRUE,America/Los_Angeles,2,92029 92025 92026 92027 92030 92033 92046,1840020620
Lake Charles,Lake Charles,LA,Louisiana,22019,Calcasieu,30.201,-93.2111,151109,670.5,shape,FALSE,TRUE,America/Chicago,2,70605 70607 70601 70609 70615 70629 70602 70606 70612 70616,1840015039
Pasadena,Pasadena,TX,Texas,48201,Harris,29.6575,-95.1498,150620,1331.1,shape,FALSE,TRUE,America/Chicago,2,77058 77059 77586 77506 77507 77504 77505 77502 77503 77258 77501 77508,1840020930
Bellevue,Bellevue,WA,Washington,53033,King,47.5951,-122.1535,150606,1737.5,shape,FALSE,TRUE,America/Los_Angeles,2,98004 98005 98006 98007 98008 98009 98015,1840018417
Joliet,Joliet,IL,Illinois,17197,Will,41.5188,-88.1499,150221,882.1,shape,FALSE,TRUE,America/Chicago,2,60421 60586 60432 60433 60431 60436 60435 60434,1840008192
Champaign,Champaign,IL,Illinois,17019,Champaign,40.1142,-88.2737,150179,1488.4,shape,FALSE,TRUE,America/Chicago,2,61822 61820 61821 61824 61825 61826,1840007239
Pomona,Pomona,CA,California,6037,Los Angeles,34.0585,-117.7626,149831,2516.9,shape,FALSE,TRUE,America/Los_Angeles,2,91768 91766 91767 91769,1840020507
Fairfield,Fairfield,CA,California,6095,Solano,38.2583,-122.0335,149635,1108.7,shape,FALSE,TRUE,America/Los_Angeles,2,94533 94534 94535,1840020253
Mesquite,Mesquite,TX,Texas,48113,Dallas,32.7602,-96.5865,149439,1175.4,shape,FALSE,TRUE,America/Chicago,2,75149 75126 75150 75181 75185 75187,1840020713
Elkhart,Elkhart,IN,Indiana,18039,Elkhart,41.6916,-85.9627,149423,752.7,shape,FALSE,TRUE,America/Indiana/Indianapolis,2,46514 46517 46516 46515,1840008187
Naperville,Naperville,IL,Illinois,17043,DuPage,41.748,-88.1659,149089,1471.7,shape,FALSE,TRUE,America/Chicago,2,60540 60563 60564 60565 60567,1840008143
St. George,St. George,UT,Utah,49053,Washington,37.0758,-113.5752,148895,481.3,shape,FALSE,TRUE,America/Denver,2,84770 84790 84791,1840021559
Roseville,Roseville,CA,California,6061,Placer,38.7703,-121.3196,148879,1303.8,shape,FALSE,TRUE,America/Los_Angeles,2,95661 95747 95678,1840020233
Topeka,Topeka,KS,Kansas,20177,Shawnee,39.0346,-95.6955,148185,792.2,shape,FALSE,TRUE,America/Chicago,2,66621 66622 66609 66608 66607 66606 66605 66604 66603 66619 66611 66612 66614 66616 66601 66624 66625 66626 66629 66636 66647 66667 66675 66683 66699,1840001621
Burlington,Burlington,NC,North Carolina,37001,Alamance,36.076,-79.4685,147415,726.6,shape,FALSE,TRUE,America/New_York,2,27217 27215,1840013362
Warner Robins,Warner Robins,GA,Georgia,13153,Houston,32.5961,-83.6527,146790,819.4,shape,FALSE,TRUE,America/New_York,2,31088 31005 31093 31099,1840015800
Surprise,Surprise,AZ,Arizona,4013,Maricopa,33.6815,-112.4515,145591,509.4,shape,FALSE,TRUE,America/Phoenix,2,85361 85379 85388 85387 85374 85378,1840021941
Torrance,Torrance,CA,California,6037,Los Angeles,33.8346,-118.3416,145454,2737.4,shape,FALSE,TRUE,America/Los_Angeles,2,90277 90501 90503 90505 90504 90507 90508 90509 90510,1840021873
Santa Maria,Santa Maria,CA,California,6083,Santa Barbara,34.9333,-120.4431,143647,1854.2,shape,FALSE,TRUE,America/Los_Angeles,2,93454 93455 93458,1840021830
Athens,Athens,GA,Georgia,13059,Clarke,33.9508,-83.3689,143173,420,shape,FALSE,TRUE,America/New_York,2,30602 30622 30601 30605 30606 30607 30609 30683 30603 30608 30612,1840029463
Houma,Houma,LA,Louisiana,22109,Terrebonne,29.58,-90.7059,143160,883.2,shape,FALSE,TRUE,America/Chicago,2,70363 70360 70361,1840015063
Columbia,Columbia,MO,Missouri,29019,Boone,38.9472,-92.3268,142637,725.2,shape,FALSE,TRUE,America/Chicago,2,65202 65203 65201 65215 65216 65211 65217 65218 65299,1840007391
Fullerton,Fullerton,CA,California,6059,Orange,33.8841,-117.9279,142280,2450.2,shape,FALSE,TRUE,America/Los_Angeles,2,92833 92832 92831 92835 92834 92836 92837 92838,1840020576
Olathe,Olathe,KS,Kansas,20091,Johnson,38.8833,-94.82,142114,878.6,shape,FALSE,TRUE,America/Chicago,2,66062 66061 66051 66063,1840003833
Thornton,Thornton,CO,Colorado,8001,Adams,39.9197,-104.9438,141799,1500.2,shape,FALSE,TRUE,America/Denver,2,80260 80233 80241 80640 80023 80229 80602 80614,1840021422
Greeley,Greeley,CO,Colorado,8123,Weld,40.4152,-104.7706,140984,843.2,shape,FALSE,TRUE,America/Denver,2,80631 80634 80632 80633 80638 80639,1840020149
Beaumont,Beaumont,TX,Texas,48245,Jefferson,30.0849,-94.1451,140930,537.6,shape,FALSE,TRUE,America/Chicago,2,77708 77705 77706 77707 77701 77702 77703 77713 77704 77710 77720 77725 77726,1840019612
Las Cruces,Las Cruces,NM,New Mexico,35013,Doa Ana,32.3265,-106.7893,140915,558.4,shape,FALSE,TRUE,America/Denver,2,88012 88011 88005 88007 88001 87654 88006 88013,1840020683
Midland,Midland,TX,Texas,48329,Midland,32.0243,-102.1147,140171,673.3,shape,FALSE,TRUE,America/Chicago,2,79701 79706 79707 79705 79703 79702 79708 79711,1840020792
Metairie,Metairie,LA,Louisiana,22051,Jefferson,29.9977,-90.178,140046,2334.8,shape,FALSE,FALSE,America/Chicago,2,70002 70003 70001 70006 70005 70004 70009 70010 70011 70033 70055,1840013994
Carolina,Carolina,PR,Puerto Rico,72031,Carolina,18.4054,-65.9792,139201,2594.9,shape,FALSE,FALSE,America/Puerto_Rico,2,00979 00987 00982 00983 00985 00981 00984 00986 00988,1630035637
West Valley City,West Valley City,UT,Utah,49035,Salt Lake,40.6886,-112.0123,138868,1496.6,shape,FALSE,TRUE,America/Denver,2,84119 84120 84128 84118 84125 84126 84127 84130 84131 84170,1840021389
Orange,Orange,CA,California,6059,Orange,33.8038,-117.8218,138728,2086.8,shape,FALSE,TRUE,America/Los_Angeles,2,92868 92869 92866 92867 92865 92856 92857 92863 92864,1840020582
Warren,Warren,MI,Michigan,26099,Macomb,42.4934,-83.027,138588,1556.5,shape,FALSE,TRUE,America/Detroit,2,48092 48093 48091 48089 48088 48397,1840002418
Grand Junction,Grand Junction,CO,Colorado,8077,Mesa,39.0877,-108.5673,138416,628.7,shape,FALSE,TRUE,America/Denver,2,81503 81506 81507 81505 81504 81501 81502,1840020230
Tyler,Tyler,TX,Texas,48423,Smith,32.3184,-95.3062,138024,711.1,shape,FALSE,TRUE,America/Chicago,2,75709 75702 75703 75701 75711 75710 75712 75713 75798 75799,1840022076
Pasadena,Pasadena,CA,California,6037,Los Angeles,34.1597,-118.139,137554,2313.2,shape,FALSE,TRUE,America/Los_Angeles,2,91103 91101 91104 91125 91106 91107 91105 91102 91109 91110 91114 91115 91116 91117 91121 91123 91124 91126 91129 91182 91184 91188 91189 91199,1840020505
Hampton,Hampton,VA,Virginia,51650,Hampton,37.0551,-76.363,137217,1029.5,shape,FALSE,TRUE,America/New_York,2,23665 23651 23681 23605 23661 23668 23663 23666 23667 23664 23669 23670,1840003866
Bloomington,Bloomington,IL,Illinois,17113,McLean,40.4757,-88.9703,136524,1122,shape,FALSE,TRUE,America/Chicago,2,61701 61705 61704 61709 61710 61791,1840007207
Elizabeth,Elizabeth,NJ,New Jersey,34039,Union,40.6658,-74.1913,135665,4252.1,shape,FALSE,TRUE,America/New_York,2,07208 07202 07201 07206 07207,1840003613
Stamford,Stamford,CT,Connecticut,9190,Western Connecticut,41.1039,-73.5585,135413,1389.9,shape,FALSE,TRUE,America/New_York,2,06906 06907 06905 06902 06903 06901 06904 06910 06911 06912 06913 06914 06926 06927,1840004841
Yuma,Yuma,AZ,Arizona,4027,Yuma,32.5995,-114.5491,135389,307.8,shape,FALSE,TRUE,America/Phoenix,2,85365 85364 85369,1840021998
Kent,Kent,WA,Washington,53033,King,47.3887,-122.2128,135169,1542.6,shape,FALSE,TRUE,America/Los_Angeles,2,98031 98030 98032 98042 98035 98064 98089,1840018424
Miramar,Miramar,FL,Florida,12011,Broward,25.9773,-80.3351,135158,1808.6,shape,FALSE,TRUE,America/New_York,2,33029 33025 33023 33027,1840015137
Coeur d'Alene,Coeur d'Alene,ID,Idaho,16055,Kootenai,47.704,-116.7936,134503,1309.1,shape,FALSE,TRUE,America/Los_Angeles,2,83815 83814 83816,1840018402
Coral Springs,Coral Springs,FL,Florida,12011,Broward,26.2702,-80.2591,133801,2259.4,shape,FALSE,TRUE,America/New_York,2,33071 33076 33065 33067 33075 33077,1840015134
Sterling Heights,Sterling Heights,MI,Michigan,26099,Macomb,42.5809,-83.0305,133744,1416.8,shape,FALSE,TRUE,America/Detroit,2,48310 48313 48312 48314 48311,1840003094
Yuba City,Yuba City,CA,California,6101,Sutter,39.1357,-121.6383,133106,1751.4,shape,FALSE,TRUE,America/Los_Angeles,2,95991 95993,1840021463
Yakima,Yakima,WA,Washington,53077,Yakima,46.5923,-120.5496,132354,1343.7,shape,FALSE,TRUE,America/Los_Angeles,2,98901 98903 98902 98908 98904 98907,1840021154
Carrollton,Carrollton,TX,Texas,48113,Dallas,32.989,-96.8999,132284,1393.3,shape,FALSE,TRUE,America/Chicago,2,75007 75006 75010 75011,1840019436
Racine,Racine,WI,Wisconsin,55101,Racine,42.7274,-87.8135,132006,1932.5,shape,FALSE,TRUE,America/Chicago,2,53405 53404 53406 53403 53402 53401 53407 53408,1840002493
Johnson City,Johnson City,TN,Tennessee,47179,Washington,36.3406,-82.3806,131718,628.5,shape,FALSE,TRUE,America/New_York,2,37614 37615 37601 37604 37602 37605 37684,1840014462
Billings,Billings,MT,Montana,30111,Yellowstone,45.7891,-108.5526,131519,998.3,shape,FALSE,TRUE,America/Denver,2,59106 59105 59102 59101 59104 59107 59108 59115 59116 59117,1840018496
Iowa City,Iowa City,IA,Iowa,19103,Johnson,41.6559,-91.5303,130736,1127,shape,FALSE,TRUE,America/Chicago,2,52245 52246 52240 52242 52243 52244,1840000532
Dover,Dover,DE,Delaware,10001,Kent,39.161,-75.5202,130186,634.2,shape,FALSE,TRUE,America/New_York,2,19902 19901 19904 19905 19906,1840005810
Bellingham,Bellingham,WA,Washington,53073,Whatcom,48.7548,-122.469,129880,1250.8,shape,FALSE,TRUE,America/Los_Angeles,2,98225 98226 98229 98228,1840018346
Charleston,Charleston,WV,West Virginia,54039,Kanawha,38.3484,-81.6322,129754,594.8,shape,FALSE,TRUE,America/New_York,2,25387 25305 25304 25303 25302 25301 25311 25314 25317 25321 25322 25323 25324 25325 25326 25327 25328 25329 25330 25331 25332 25333 25334 25335 25336 25337 25338 25339 25350 25364 25375 25392 25396,1840006196
Lynchburg,Lynchburg,VA,Virginia,51680,Lynchburg,37.4003,-79.1909,128849,624.1,shape,FALSE,TRUE,America/New_York,2,24515 24504 24502 24503 24501 24505 24506 24513 24514,1840003855
Santa Clara,Santa Clara,CA,California,6085,Santa Clara,37.3646,-121.968,128058,2705.3,shape,FALSE,TRUE,America/Los_Angeles,2,95054 95050 95051 95053 95052 95055 95056,1840021571
Norman,Norman,OK,Oklahoma,40027,Cleveland,35.2335,-97.3471,127701,276,shape,FALSE,TRUE,America/Chicago,2,73019 73026 73072 73070 73071 74857 73069 73068,1840020451
Greenville,Greenville,NC,North Carolina,37147,Pitt,35.5943,-77.376,127574,906.4,shape,FALSE,TRUE,America/New_York,2,27834 27858 28590 27833 27835 27836,1840013407
Simi Valley,Simi Valley,CA,California,6111,Ventura,34.2663,-118.749,127568,1172.4,shape,FALSE,TRUE,America/Los_Angeles,2,93063 93065 93062 93094 93099,1840021843
Fort Smith,Fort Smith,AR,Arkansas,5131,Sebastian,35.3495,-94.3695,126452,537.3,shape,FALSE,TRUE,America/Chicago,2,72908 72901 72904 72923 72916 72903 72906 72913 72914 72917 72918 72919,1840013456
Abilene,Abilene,TX,Texas,48441,Taylor,32.4543,-99.7384,126356,457.4,shape,FALSE,TRUE,America/Chicago,2,79607 79605 79699 79603 79602 79601 79606 79604 79608 79697 79698,1840019476
Arecibo,Arecibo,PR,Puerto Rico,72013,Arecibo,18.4491,-66.7387,125727,1007.8,shape,FALSE,FALSE,America/Puerto_Rico,2,00612 00613 00614,1630023566
Lewisville,Lewisville,TX,Texas,48121,Denton,33.0454,-96.9815,125028,1187.4,shape,FALSE,TRUE,America/Chicago,2,75067 75065 75056 75057 75077 75029,1840020639
Pearland,Pearland,TX,Texas,48039,Brazoria,29.5581,-95.3218,124478,987.1,shape,FALSE,TRUE,America/Chicago,2,77047 77089 77584 77581 77588,1840020979
Lehigh Acres,Lehigh Acres,FL,Florida,12071,Lee,26.612,-81.6388,124440,518.3,shape,FALSE,FALSE,America/New_York,2,33936 33973 33972 33971 33976 33974 33970,1840014220
Kenosha,Kenosha,WI,Wisconsin,55059,Kenosha,42.5865,-87.8773,124297,1341.2,shape,FALSE,TRUE,America/Chicago,2,53144 53140 53142 53143 53141,1840003160
Seaside,Seaside,CA,California,6053,Monterey,36.6224,-121.8199,123421,1397.2,shape,FALSE,TRUE,America/Los_Angeles,2,93955,1840021634
Burlington,Burlington,VT,Vermont,50007,Chittenden,44.4876,-73.2316,123307,1673.1,shape,FALSE,TRUE,America/New_York,2,05405 05401 05408 05406,1840002310
Arvada,Arvada,CO,Colorado,8059,Jefferson,39.832,-105.151,123066,1219,shape,FALSE,TRUE,America/Denver,2,80005 80004 80007 80003 80002 80403 80001 80006,1840018788
Waldorf,Waldorf,MD,Maryland,24017,Charles,38.6085,-76.9194,122310,863.7,shape,FALSE,FALSE,America/New_York,2,20601 20603 20602 20675 20695 20604,1840006175
Independence,Independence,MO,Missouri,29095,Jackson,39.0871,-94.3501,122218,605.2,shape,FALSE,TRUE,America/Chicago,2,64054 64055 64056 64057 64050 64052 64053 64015 64016 64051,1840008534
Rochester,Rochester,MN,Minnesota,27109,Olmsted,44.0154,-92.478,121870,836.8,shape,FALSE,TRUE,America/Chicago,2,55902 55903 55901 55906 55904 55905,1840008987
Logan,Logan,UT,Utah,49005,Cache,41.7399,-111.8422,121666,1142.4,shape,FALSE,TRUE,America/Denver,2,84321 84322 84341,1840020108
Harlingen,Harlingen,TX,Texas,48061,Cameron,26.1916,-97.6977,121441,688.2,shape,FALSE,TRUE,America/Chicago,2,78550 78552 78551 78553,1840021036
Berkeley,Berkeley,CA,California,6001,Alameda,37.8722,-122.276,121385,4492.7,shape,FALSE,TRUE,America/Los_Angeles,2,94708 94707 94705 94704 94703 94702 94709 94710 94720 94701 94712,1840018914
Clovis,Clovis,CA,California,6019,Fresno,36.8278,-119.683,120607,1801.3,shape,FALSE,TRUE,America/Los_Angeles,2,93611 93612 93619 93613 93747,1840018944
Round Rock,Round Rock,TX,Texas,48491,Williamson,30.527,-97.6642,120465,1231.6,shape,FALSE,TRUE,America/Chicago,2,78681 78664 78665 78682 78683,1840020879
Pueblo,Pueblo,CO,Colorado,8101,Pueblo,38.2701,-104.6114,120380,765.4,shape,FALSE,TRUE,America/Denver,2,81004 81005 81003 81001 81008 81002 81010 81011 81012,1840020255
Temple,Temple,TX,Texas,48027,Bell,31.1068,-97.3891,120240,447,shape,FALSE,TRUE,America/Chicago,2,76501 76502 76504 76508 76533,1840022154
Meridian,Meridian,ID,Idaho,16001,Ada,43.6116,-116.3977,119872,1271.9,shape,FALSE,TRUE,America/Boise,2,83646 83642 83680,1840020046
Duluth,Duluth,MN,Minnesota,27137,St. Louis,46.7756,-92.1393,118574,467.5,shape,FALSE,TRUE,America/Chicago,2,55803 55802 55807 55806 55805 55804 55808 55810 55811 55812 55815 55816,1840007685
The Woodlands,The Woodlands,TX,Texas,48339,Montgomery,30.1738,-95.5134,118402,1056.4,shape,FALSE,FALSE,America/Chicago,2,77381 77384 77380 77382 77389 77393,1840019585
Boulder,Boulder,CO,Colorado,8013,Boulder,40.0248,-105.2524,118090,1534.8,shape,FALSE,TRUE,America/Denver,2,80310 80304 80305 80302 80303 80301 80307 80309 80314,1840018774
Richardson,Richardson,TX,Texas,48113,Dallas,32.9716,-96.7093,118063,1595.7,shape,FALSE,TRUE,America/Chicago,2,75081 75080 75082 75045 75083 75085,1840020710
Cambridge,Cambridge,MA,Massachusetts,25017,Middlesex,42.3759,-71.1185,117962,7119.9,shape,FALSE,TRUE,America/New_York,2,02142 02140 02141 02139 02138 02238 02477,1840000429
West Palm Beach,West Palm Beach,FL,Florida,12099,Palm Beach,26.7469,-80.132,117588,842.8,shape,FALSE,TRUE,America/New_York,2,33411 33412 33417 33409 33407 33405 33401 33402 33422,1840015993
Port Arthur,Port Arthur,TX,Texas,48245,Jefferson,29.8554,-93.9264,117348,285.7,shape,FALSE,TRUE,America/Chicago,2,77655 77640 77642 77641 77643,1840020919
East Los Angeles,East Los Angeles,CA,California,6037,Los Angeles,34.0326,-118.1691,117222,6072.6,shape,FALSE,FALSE,America/Los_Angeles,2,90063 90022 90023,1840019206
Redding,Redding,CA,California,6089,Shasta,40.5698,-122.365,117163,605.9,shape,FALSE,TRUE,America/Los_Angeles,2,96002 96003 96001,1840020141
Clearwater,Clearwater,FL,Florida,12103,Pinellas,27.979,-82.7623,116984,1727.4,shape,FALSE,TRUE,America/New_York,2,33759 33755 33756 33763 33761 33767 33764 33765 33757 33758 33766 33769,1840015110
Monroe,Monroe,LA,Louisiana,22073,Ouachita,32.5185,-92.0774,116927,620.2,shape,FALSE,TRUE,America/Chicago,2,71212 71209 71203 71202 71201 71207 71210 71213 71217,1840014881
Utica,Utica,NY,New York,36065,Oneida,43.0962,-75.2261,116766,1494.5,shape,FALSE,TRUE,America/New_York,2,13501 13502 13503 13504 13505 13599,1840002746
St. Cloud,St. Cloud,MN,Minnesota,27145,Stearns,45.534,-94.1718,116649,662.4,shape,FALSE,TRUE,America/Chicago,2,56304 56301 56303 56302 56372 56393 56395 56396,1840008881
Mandeville,Mandeville,LA,Louisiana,22103,St. Tammany,30.3751,-90.0904,116649,665,shape,FALSE,TRUE,America/Chicago,2,70448 70471 70470,1840015909
West Jordan,West Jordan,UT,Utah,49035,Salt Lake,40.6024,-112.0008,116383,1390.4,shape,FALSE,TRUE,America/Denver,2,84088 84081 84084,1840021388
North Charleston,North Charleston,SC,South Carolina,45019,Charleston,32.9067,-80.0722,115755,575.7,shape,FALSE,TRUE,America/New_York,2,29420 29456 29485 29404 29405 29406 29418 29416 29419 29423,1840015164
Richmond,Richmond,CA,California,6013,Contra Costa,37.9477,-122.3389,115619,1485.9,shape,FALSE,TRUE,America/Los_Angeles,2,94530 94801 94803 94804 94805 94806 94802 94807 94808 94850,1840020277
Westminster,Westminster,CO,Colorado,8001,Adams,39.8837,-105.0624,115502,1411.9,shape,FALSE,TRUE,America/Denver,2,80030 80031 80234 80005 80003 80021 80020 80035,1840021423
Saginaw,Saginaw,MI,Michigan,26145,Saginaw,43.4199,-83.9501,115442,1000.9,shape,FALSE,TRUE,America/Detroit,2,48602 48607 48601 48606 48663,1840002813
Kailua,Kailua,HI,Hawaii,15003,Honolulu,21.392,-157.7396,115264,2003.2,shape,FALSE,FALSE,Pacific/Honolulu,2,96734,1840023244
Brandon,Brandon,FL,Florida,12057,Hillsborough,27.9367,-82.3,114923,1339.2,shape,FALSE,FALSE,America/New_York,2,33510 33594 33619 33511 33584 33508 33509 33595,1840014151
Ponce,Ponce,PR,Puerto Rico,72113,Ponce,18.0127,-66.6212,114901,1509.8,shape,FALSE,FALSE,America/Puerto_Rico,2,00728 00717 00716 00730 00732 00733 00734,1630023669
Carlsbad,Carlsbad,CA,California,6073,San Diego,33.1246,-117.2834,114745,1171.7,shape,FALSE,TRUE,America/Los_Angeles,2,92008 92009 92011 92010 92013 92018,1840019352
Lowell,Lowell,MA,Massachusetts,25017,Middlesex,42.6389,-71.3217,114737,3254.9,shape,FALSE,TRUE,America/New_York,2,01851 01850 01852 01854 01853,1840000426
Broken Arrow,Broken Arrow,OK,Oklahoma,40143,Tulsa,36.038,-95.7806,114237,700.6,shape,FALSE,TRUE,America/Chicago,2,74014 74011 74012 74013,1840019059
Elgin,Elgin,IL,Illinois,17089,Kane,42.0383,-88.324,114190,1159.4,shape,FALSE,TRUE,America/Chicago,2,60120 60123 60124 60121 60122,1840008134
Gresham,Gresham,OR,Oregon,41051,Multnomah,45.5021,-122.4413,113525,1863.7,shape,FALSE,TRUE,America/Los_Angeles,2,97030 97233 97230 97080,1840019939
League City,League City,TX,Texas,48167,Galveston,29.4874,-95.1087,113469,853,shape,FALSE,TRUE,America/Chicago,2,77573 77598 77511 77539 77565 77574 77592,1840020973
Downey,Downey,CA,California,6037,Los Angeles,33.9379,-118.1311,113052,3517.5,shape,FALSE,TRUE,America/Los_Angeles,2,90242 90240 90241 90239,1840019245
Waterloo,Waterloo,IA,Iowa,19013,Black Hawk,42.4918,-92.3522,112333,421.6,shape,FALSE,TRUE,America/Chicago,2,50707 50703 50702 50701,1840000440
Murrieta,Murrieta,CA,California,6065,Riverside,33.5719,-117.1909,111899,1288.3,shape,FALSE,TRUE,America/Los_Angeles,2,92563 92562,1840020553
Leominster,Leominster,MA,Massachusetts,25027,Worcester,42.5209,-71.7717,111856,584.3,shape,FALSE,TRUE,America/New_York,2,1453,1840000437
Longview,Longview,TX,Texas,48183,Gregg,32.5193,-94.7622,111855,568.3,shape,FALSE,TRUE,America/Chicago,2,75602 75601 75605 75604 75606 75608 75615 75660,1840020746
Jacksonville,Jacksonville,NC,North Carolina,37133,Onslow,34.7289,-77.3941,111830,568.9,shape,FALSE,TRUE,America/New_York,2,28546 28547 28544 28542 28540 28543 28541 28545,1840014653
Pompano Beach,Pompano Beach,FL,Florida,12011,Broward,26.2428,-80.1312,111790,1793.5,shape,FALSE,TRUE,America/New_York,2,33069 33060 33062 33064 33061 33072 33074 33097,1840015143
Bend,Bend,OR,Oregon,41017,Deschutes,44.0563,-121.3095,111774,1108.2,shape,FALSE,TRUE,America/Los_Angeles,2,97702 97703 97701 97708,1840018618
Miami Gardens,Miami Gardens,FL,Florida,12086,Miami-Dade,25.9433,-80.2426,111618,2332.6,shape,FALSE,TRUE,America/New_York,2,33014 33169 33055 33056 33054 33269,1840015151
Costa Mesa,Costa Mesa,CA,California,6059,Orange,33.6667,-117.9135,111490,2723.5,shape,FALSE,TRUE,America/Los_Angeles,2,92626 92627 92628,1840019326
Sioux City,Sioux City,IA,Iowa,19193,Woodbury,42.4959,-96.3901,111361,564.5,shape,FALSE,TRUE,America/Chicago,2,51106 51104 51105 51103 51101 51108 51109 51111,1840000447
Everett,Everett,WA,Washington,53061,Snohomish,47.9525,-122.1669,110847,1273.7,shape,FALSE,TRUE,America/Los_Angeles,2,98207 98204 98203 98201 98208 98206 98213,1840019785
Gilroy,Gilroy,CA,California,6085,Santa Clara,37.0046,-121.5854,110720,1370.5,shape,FALSE,TRUE,America/Los_Angeles,2,95020,1840020327
San Buenaventura,San Buenaventura,CA,California,6111,Ventura,34.2741,-119.2314,110358,1948,shape,FALSE,TRUE,America/Los_Angeles,2,93004 93001 93003 93002 93005 93006 93007 93009,1840037414
Temecula,Temecula,CA,California,6065,Riverside,33.4928,-117.1315,110114,1143.6,shape,FALSE,TRUE,America/Los_Angeles,2,92590 92591 92592 92589 92593,1840021937
Sugar Land,Sugar Land,TX,Texas,48157,Fort Bend,29.5935,-95.6358,110077,1050.2,shape,FALSE,TRUE,America/Chicago,2,77498 77478 77479 77487 77496,1840022217
Chico,Chico,CA,California,6007,Butte,39.7578,-121.8161,110001,1152,shape,FALSE,TRUE,America/Los_Angeles,2,95973 95926 95928 95929 95927 95976,1840018778
